{"type":"FeatureCollection", "features": [
{"type":"Feature","geometry":{"type":"Point","coordinates":[-10529013.20078267,4728392.584824878]},"properties":{"OBJECTID":121,"UNIQUEID":"177746","NAME":"KANSAS CITY ART INSTITUTE","ADDRESS":"4415 WARWICK BLVD","CITY":"KANSAS CITY","STATE":"MO","ZIP":"64111","ZIP4":"1874","TELEPHONE":"(816) 472-4852","TYPE":"2","STATUS":"A","POPULATION":951,"COUNTY":"JACKSON","COUNTYFIPS":"29095","COUNTRY":"USA","NAICS_CODE":"611310","NAICS_DESC":"COLLEGES, UNIVERSITIES, AND PROFESSIONAL SCHOOLS","SOURCE":"http://kcai.edu/wp-content/uploads/2015/10/1607-Campus-map.pdf","SOURCEDATE":"2018-03-23T00:00:00.000Z","VAL_METHOD":"IMAGERY/OTHER","VAL_DATE":"2018-03-23T00:00:00.000Z","WEBSITE":"www.kcai.edu/","TOT_ENROLL":698,"TOT_EMP":253,"SHELTERID":"NOT AVAILABLE","SHAPE_Leng":2996.45705937,"SHAPE_Area":129553.731148,"ORIG_FID":0}},
{"type":"Feature","geometry":{"type":"Point","coordinates":[-10074903.977278713,4671087.312677348]},"properties":{"OBJECTID":123,"UNIQUEID":"178059","NAME":"MARYVILLE UNIVERSITY OF SAINT LOUIS","ADDRESS":"650 MARYVILLE UNIVERSITY DRIVE","CITY":"SAINT LOUIS","STATE":"MO","ZIP":"63141","ZIP4":"7299","TELEPHONE":"(800) 627-9855","TYPE":"2","STATUS":"A","POPULATION":12436,"COUNTY":"ST. LOUIS","COUNTYFIPS":"29189","COUNTRY":"USA","NAICS_CODE":"611310","NAICS_DESC":"COLLEGES, UNIVERSITIES, AND PROFESSIONAL SCHOOLS","SOURCE":"www.maryville.edu","SOURCEDATE":"2018-03-23T00:00:00.000Z","VAL_METHOD":"IMAGERY/OTHER","VAL_DATE":"2018-03-23T00:00:00.000Z","WEBSITE":"www.maryville.edu/","TOT_ENROLL":10979,"TOT_EMP":1457,"SHELTERID":"NOT AVAILABLE","SHAPE_Leng":3818.78185624,"SHAPE_Area":727368.698858,"ORIG_FID":1}},
{"type":"Feature","geometry":{"type":"Point","coordinates":[-10278523.145778896,4712514.434075124]},"properties":{"OBJECTID":124,"UNIQUEID":"178396","NAME":"UNIVERSITY OF MISSOURI-COLUMBIA","ADDRESS":"105 JESSE HALL","CITY":"COLUMBIA","STATE":"MO","ZIP":"65211","ZIP4":"NOT AVAILABLE","TELEPHONE":"(573) 882-2121","TYPE":"1","STATUS":"A","POPULATION":41145,"COUNTY":"BOONE","COUNTYFIPS":"29019","COUNTRY":"USA","NAICS_CODE":"611310","NAICS_DESC":"COLLEGES, UNIVERSITIES, AND PROFESSIONAL SCHOOLS","SOURCE":"http://map.missouri.edu/","SOURCEDATE":"2018-03-26T00:00:00.000Z","VAL_METHOD":"IMAGERY/OTHER","VAL_DATE":"2018-03-26T00:00:00.000Z","WEBSITE":"https://missouri.edu/","TOT_ENROLL":31089,"TOT_EMP":10056,"SHELTERID":"NOT AVAILABLE","SHAPE_Leng":22440.8424747,"SHAPE_Area":10119575.6944,"ORIG_FID":2}},
{"type":"Feature","geometry":{"type":"Point","coordinates":[-10528454.525002329,4726633.268865937]},"properties":{"OBJECTID":125,"UNIQUEID":"178402","NAME":"UNIVERSITY OF MISSOURI-KANSAS CITY","ADDRESS":"5000 HOLMES ST.","CITY":"KANSAS CITY","STATE":"MO","ZIP":"64110","ZIP4":"NOT AVAILABLE","TELEPHONE":"(816) 235-1000","TYPE":"1","STATUS":"A","POPULATION":19161,"COUNTY":"JACKSON","COUNTYFIPS":"29095","COUNTRY":"USA","NAICS_CODE":"611310","NAICS_DESC":"COLLEGES, UNIVERSITIES, AND PROFESSIONAL SCHOOLS","SOURCE":"http://www.umkc.edu/maps/","SOURCEDATE":"2018-03-26T00:00:00.000Z","VAL_METHOD":"IMAGERY/OTHER","VAL_DATE":"2018-03-26T00:00:00.000Z","WEBSITE":"https://www.umkc.edu/","TOT_ENROLL":16147,"TOT_EMP":3014,"SHELTERID":"NOT AVAILABLE","SHAPE_Leng":6162.11945176,"SHAPE_Area":1004300.87521,"ORIG_FID":3}},
{"type":"Feature","geometry":{"type":"Point","coordinates":[-10044926.471538866,4668818.228687487]},"properties":{"OBJECTID":127,"UNIQUEID":"179159","NAME":"SAINT LOUIS UNIVERSITY","ADDRESS":"ONE NORTH GRAND BLVD","CITY":"SAINT LOUIS","STATE":"MO","ZIP":"63103","ZIP4":"2097","TELEPHONE":"(314) 977-2222","TYPE":"2","STATUS":"A","POPULATION":17516,"COUNTY":"ST. LOUIS CITY","COUNTYFIPS":"29510","COUNTRY":"USA","NAICS_CODE":"611310","NAICS_DESC":"COLLEGES, UNIVERSITIES, AND PROFESSIONAL SCHOOLS","SOURCE":"http://www.slu.edu/campusmap/index.php?campus=1","SOURCEDATE":"2018-03-27T00:00:00.000Z","VAL_METHOD":"IMAGERY/OTHER","VAL_DATE":"2018-03-27T00:00:00.000Z","WEBSITE":"www.slu.edu/","TOT_ENROLL":12229,"TOT_EMP":5287,"SHELTERID":"NOT AVAILABLE","SHAPE_Leng":15337.4268767,"SHAPE_Area":2302017.77944,"ORIG_FID":4}},
{"type":"Feature","geometry":{"type":"Point","coordinates":[-9966252.313167049,4483604.671094893]},"properties":{"OBJECTID":132,"UNIQUEID":"179557","NAME":"SOUTHEAST MISSOURI STATE UNIVERSITY","ADDRESS":"ONE UNIVERSITY PLAZA, MS2025","CITY":"CAPE GIRARDEAU","STATE":"MO","ZIP":"63701","ZIP4":"NOT AVAILABLE","TELEPHONE":"(573) 651-2000","TYPE":"1","STATUS":"A","POPULATION":11205,"COUNTY":"CAPE GIRARDEAU","COUNTYFIPS":"29031","COUNTRY":"USA","NAICS_CODE":"611310","NAICS_DESC":"COLLEGES, UNIVERSITIES, AND PROFESSIONAL SCHOOLS","SOURCE":"http://semo.edu/map/","SOURCEDATE":"2018-03-28T00:00:00.000Z","VAL_METHOD":"IMAGERY/OTHER","VAL_DATE":"2018-03-28T00:00:00.000Z","WEBSITE":"www.semo.edu/","TOT_ENROLL":10001,"TOT_EMP":1204,"SHELTERID":"NOT AVAILABLE","SHAPE_Leng":10978.1365476,"SHAPE_Area":1892738.69848,"ORIG_FID":5}},
{"type":"Feature","geometry":{"type":"Point","coordinates":[-10235824.262328679,4701864.137887749]},"properties":{"OBJECTID":133,"UNIQUEID":"179964","NAME":"WILLIAM WOODS UNIVERSITY","ADDRESS":"ONE UNIVERSITY AVENUE","CITY":"FULTON","STATE":"MO","ZIP":"65251","ZIP4":"2388","TELEPHONE":"(573) 642-2251","TYPE":"2","STATUS":"A","POPULATION":2498,"COUNTY":"CALLAWAY","COUNTYFIPS":"29027","COUNTRY":"USA","NAICS_CODE":"611310","NAICS_DESC":"COLLEGES, UNIVERSITIES, AND PROFESSIONAL SCHOOLS","SOURCE":"http://www.williamwoods.edu/about/docs/campus_map.pdf","SOURCEDATE":"2018-03-28T00:00:00.000Z","VAL_METHOD":"IMAGERY/OTHER","VAL_DATE":"2018-03-28T00:00:00.000Z","WEBSITE":"https://www.williamwoods.edu/","TOT_ENROLL":2114,"TOT_EMP":384,"SHELTERID":"NOT AVAILABLE","SHAPE_Leng":4556.01436123,"SHAPE_Area":617551.808045,"ORIG_FID":6}},
{"type":"Feature","geometry":{"type":"Point","coordinates":[-10398325.841725085,4523174.804539182]},"properties":{"OBJECTID":317,"UNIQUEID":"179326","NAME":"SOUTHWEST BAPTIST UNIVERSITY","ADDRESS":"1600 UNIVERSITY AVE","CITY":"BOLIVAR","STATE":"MO","ZIP":"65613","ZIP4":"2596","TELEPHONE":"(800) 526-5859","TYPE":"2","STATUS":"A","POPULATION":3548,"COUNTY":"POLK","COUNTYFIPS":"29167","COUNTRY":"USA","NAICS_CODE":"611310","NAICS_DESC":"COLLEGES, UNIVERSITIES, AND PROFESSIONAL SCHOOLS","SOURCE":"https://www.sbuniv.edu/about/campus-locations/","SOURCEDATE":"2018-03-27T00:00:00.000Z","VAL_METHOD":"IMAGERY/OTHER","VAL_DATE":"2018-03-27T00:00:00.000Z","WEBSITE":"www.sbuniv.edu/","TOT_ENROLL":3039,"TOT_EMP":509,"SHELTERID":"NOT AVAILABLE","SHAPE_Leng":7758.06108312,"SHAPE_Area":965280.951066,"ORIG_FID":7}},
{"type":"Feature","geometry":{"type":"Point","coordinates":[-10528032.36876163,4713007.846887596]},"properties":{"OBJECTID":343,"UNIQUEID":"482538","NAME":"DEVRY UNIVERSITY-MISSOURI","ADDRESS":"1310 E 104TH ST, STE 120","CITY":"KANSAS CITY","STATE":"MO","ZIP":"64131","ZIP4":"NOT AVAILABLE","TELEPHONE":"(816) 943-7300","TYPE":"3","STATUS":"A","POPULATION":76,"COUNTY":"JACKSON","COUNTYFIPS":"29095","COUNTRY":"USA","NAICS_CODE":"611310","NAICS_DESC":"COLLEGES, UNIVERSITIES, AND PROFESSIONAL SCHOOLS","SOURCE":"http://get-started.devry.edu/sem/locations","SOURCEDATE":"2018-04-02T00:00:00.000Z","VAL_METHOD":"IMAGERY/OTHER","VAL_DATE":"2018-04-02T00:00:00.000Z","WEBSITE":"https://www.devry.edu/","TOT_ENROLL":49,"TOT_EMP":27,"SHELTERID":"NOT AVAILABLE","SHAPE_Leng":457.91536524240325,"SHAPE_Area":9776.35120765,"ORIG_FID":8}},
{"type":"Feature","geometry":{"type":"Point","coordinates":[-10057143.456480414,4662946.586347381]},"properties":{"OBJECTID":368,"UNIQUEID":"179894","NAME":"WEBSTER UNIVERSITY","ADDRESS":"470 E LOCKWOOD AVE.","CITY":"SAINT LOUIS","STATE":"MO","ZIP":"63119","ZIP4":"3194","TELEPHONE":"(314) 968-6900","TYPE":"2","STATUS":"A","POPULATION":9692,"COUNTY":"ST. LOUIS","COUNTYFIPS":"29189","COUNTRY":"USA","NAICS_CODE":"611310","NAICS_DESC":"COLLEGES, UNIVERSITIES, AND PROFESSIONAL SCHOOLS","SOURCE":"http://www.webster.edu/campus-map/","SOURCEDATE":"2018-03-28T00:00:00.000Z","VAL_METHOD":"IMAGERY/OTHER","VAL_DATE":"2018-03-28T00:00:00.000Z","WEBSITE":"www.webster.edu/","TOT_ENROLL":8197,"TOT_EMP":1495,"SHELTERID":"NOT AVAILABLE","SHAPE_Leng":4045.33227264,"SHAPE_Area":383418.634228,"ORIG_FID":9}},
{"type":"Feature","geometry":{"type":"Point","coordinates":[-10526537.37454435,4737063.715025161]},"properties":{"OBJECTID":485,"UNIQUEID":"179812","NAME":"KANSAS CITY UNIVERSITY OF MEDICINE AND BIOSCIENCES","ADDRESS":"1750 INDEPENDENCE AVE","CITY":"KANSAS CITY","STATE":"MO","ZIP":"64106","ZIP4":"1453","TELEPHONE":"(816) 654-7000","TYPE":"2","STATUS":"A","POPULATION":1742,"COUNTY":"JACKSON","COUNTYFIPS":"29095","COUNTRY":"USA","NAICS_CODE":"611310","NAICS_DESC":"COLLEGES, UNIVERSITIES, AND PROFESSIONAL SCHOOLS","SOURCE":"www.kcumb.edu","SOURCEDATE":"2018-03-28T00:00:00.000Z","VAL_METHOD":"IMAGERY/OTHER","VAL_DATE":"2018-03-28T00:00:00.000Z","WEBSITE":"www.kcumb.edu/","TOT_ENROLL":1275,"TOT_EMP":467,"SHELTERID":"NOT AVAILABLE","SHAPE_Leng":2207.10134965,"SHAPE_Area":187279.971793,"ORIG_FID":10}},
{"type":"Feature","geometry":{"type":"Point","coordinates":[-10522687.005135745,4447149.062768488]},"properties":{"OBJECTID":500,"UNIQUEID":"490601","NAME":"KANSAS CITY UNIVERSITY OF MEDICINE AND BIOSCIENCES-JOPLIN","ADDRESS":"2901 ST. JOHN'S BOULEVARD","CITY":"JOPLIN","STATE":"MO","ZIP":"64804","ZIP4":"1598","TELEPHONE":"(417) 208-0630","TYPE":"2","STATUS":"A","POPULATION":626,"COUNTY":"JASPER","COUNTYFIPS":"29097","COUNTRY":"USA","NAICS_CODE":"611310","NAICS_DESC":"COLLEGES, UNIVERSITIES, AND PROFESSIONAL SCHOOLS","SOURCE":"https://myatlascms.com/map/?id=758#!ct/23870,23890?ce/21915?mc/37.05798507677163,-94.52712625893014?z/18","SOURCEDATE":"2019-02-27T00:00:00.000Z","VAL_METHOD":"IMAGERY/OTHER","VAL_DATE":"2019-02-27T00:00:00.000Z","WEBSITE":"www.kcumb.edu/","TOT_ENROLL":626,"TOT_EMP":-999,"SHELTERID":"NOT AVAILABLE","SHAPE_Leng":1748.02838307,"SHAPE_Area":120124.585079,"ORIG_FID":11}},
{"type":"Feature","geometry":{"type":"Point","coordinates":[-10530227.589625584,4729104.79288614]},"properties":{"OBJECTID":641,"UNIQUEID":"179450","NAME":"SAINT LUKE'S COLLEGE OF HEALTH SCIENCES","ADDRESS":"624 WESTPORT ROAD","CITY":"KANSAS CITY","STATE":"MO","ZIP":"64111","ZIP4":"NOT AVAILABLE","TELEPHONE":"NOT AVAILABLE","TYPE":"2","STATUS":"C","POPULATION":-999,"COUNTY":"JACKSON","COUNTYFIPS":"29095","COUNTRY":"USA","NAICS_CODE":"611310","NAICS_DESC":"COLLEGES, UNIVERSITIES, AND PROFESSIONAL SCHOOLS","SOURCE":"http://saintlukescollege.edu/about/campus","SOURCEDATE":"2018-10-10T00:00:00.000Z","VAL_METHOD":"IMAGERY/OTHER","VAL_DATE":"2018-10-10T00:00:00.000Z","WEBSITE":"NOT AVAILABLE","TOT_ENROLL":-999,"TOT_EMP":-999,"SHELTERID":"NOT AVAILABLE","SHAPE_Leng":247.00453195191824,"SHAPE_Area":3706.21695054,"ORIG_FID":12}},
{"type":"Feature","geometry":{"type":"Point","coordinates":[-10277710.594110494,4715632.585567801]},"properties":{"OBJECTID":2151,"UNIQUEID":"177065","NAME":"COLUMBIA COLLEGE","ADDRESS":"1001 ROGERS STREET","CITY":"COLUMBIA","STATE":"MO","ZIP":"65216","ZIP4":"NOT AVAILABLE","TELEPHONE":"(800) 231-2391","TYPE":"2","STATUS":"A","POPULATION":9384,"COUNTY":"BOONE","COUNTYFIPS":"29019","COUNTRY":"USA","NAICS_CODE":"611310","NAICS_DESC":"COLLEGES, UNIVERSITIES, AND PROFESSIONAL SCHOOLS","SOURCE":"https://web.ccis.edu/~/media/Files/About-CC/campus-map.pdf?la=en","SOURCEDATE":"2018-03-22T00:00:00.000Z","VAL_METHOD":"IMAGERY/OTHER","VAL_DATE":"2018-03-22T00:00:00.000Z","WEBSITE":"www.ccis.edu/","TOT_ENROLL":8347,"TOT_EMP":1037,"SHELTERID":"NOT AVAILABLE","SHAPE_Leng":3645.76325279,"SHAPE_Area":275890.840434,"ORIG_FID":13}},
{"type":"Feature","geometry":{"type":"Point","coordinates":[-10529870.137382103,4709102.477965852]},"properties":{"OBJECTID":2157,"UNIQUEID":"176628","NAME":"AVILA UNIVERSITY","ADDRESS":"11901 WORNALL RD","CITY":"KANSAS CITY","STATE":"MO","ZIP":"64145","ZIP4":"1698","TELEPHONE":"(816) 942-8400","TYPE":"2","STATUS":"A","POPULATION":1761,"COUNTY":"JACKSON","COUNTYFIPS":"29095","COUNTRY":"USA","NAICS_CODE":"611310","NAICS_DESC":"COLLEGES, UNIVERSITIES, AND PROFESSIONAL SCHOOLS","SOURCE":"https://www.avila.edu/campus-resources/campus-map-1","SOURCEDATE":"2018-03-22T00:00:00.000Z","VAL_METHOD":"IMAGERY/OTHER","VAL_DATE":"2018-03-22T00:00:00.000Z","WEBSITE":"https://www.avila.edu/","TOT_ENROLL":1414,"TOT_EMP":347,"SHELTERID":"NOT AVAILABLE","SHAPE_Leng":2184.61163417,"SHAPE_Area":289122.269578,"ORIG_FID":14}},
{"type":"Feature","geometry":{"type":"Point","coordinates":[-10384981.085153718,4470511.718918764]},"properties":{"OBJECTID":2158,"UNIQUEID":"176770","NAME":"COX COLLEGE","ADDRESS":"1423 N JEFFERSON","CITY":"SPRINGFIELD","STATE":"MO","ZIP":"65802","ZIP4":"1917","TELEPHONE":"(417) 269-3401","TYPE":"2","STATUS":"A","POPULATION":1105,"COUNTY":"GREENE","COUNTYFIPS":"29077","COUNTRY":"USA","NAICS_CODE":"611310","NAICS_DESC":"COLLEGES, UNIVERSITIES, AND PROFESSIONAL SCHOOLS","SOURCE":"www.coxcollege.edu","SOURCEDATE":"2018-03-22T00:00:00.000Z","VAL_METHOD":"IMAGERY/OTHER","VAL_DATE":"2018-03-22T00:00:00.000Z","WEBSITE":"https://coxcollege.edu/","TOT_ENROLL":975,"TOT_EMP":130,"SHELTERID":"NOT AVAILABLE","SHAPE_Leng":953.0995711318913,"SHAPE_Area":51649.864604,"ORIG_FID":15}},
{"type":"Feature","geometry":{"type":"Point","coordinates":[-10317581.174668778,4743283.439565125]},"properties":{"OBJECTID":2159,"UNIQUEID":"176947","NAME":"CENTRAL METHODIST UNIVERSITY-COLLEGE OF LIBERAL ARTS AND SCIENCES","ADDRESS":"411 CENTRAL METHODIST SQUARE","CITY":"FAYETTE","STATE":"MO","ZIP":"65248","ZIP4":"1198","TELEPHONE":"(660) 248-3391","TYPE":"2","STATUS":"A","POPULATION":1407,"COUNTY":"HOWARD","COUNTYFIPS":"29089","COUNTRY":"USA","NAICS_CODE":"611310","NAICS_DESC":"COLLEGES, UNIVERSITIES, AND PROFESSIONAL SCHOOLS","SOURCE":"http://www.centralmethodist.edu/locations/fayette.php","SOURCEDATE":"2018-03-22T00:00:00.000Z","VAL_METHOD":"IMAGERY/OTHER","VAL_DATE":"2018-03-22T00:00:00.000Z","WEBSITE":"www.centralmethodist.edu/","TOT_ENROLL":1141,"TOT_EMP":266,"SHELTERID":"NOT AVAILABLE","SHAPE_Leng":3695.71060051,"SHAPE_Area":428665.336336,"ORIG_FID":16}},
{"type":"Feature","geometry":{"type":"Point","coordinates":[-10435118.571478635,4686901.833674618]},"properties":{"OBJECTID":2160,"UNIQUEID":"176965","NAME":"UNIVERSITY OF CENTRAL MISSOURI","ADDRESS":"108 W SOUTH STREET","CITY":"WARRENSBURG","STATE":"MO","ZIP":"64093","ZIP4":"NOT AVAILABLE","TELEPHONE":"(660) 543-4111","TYPE":"1","STATUS":"A","POPULATION":11236,"COUNTY":"JOHNSON","COUNTYFIPS":"29101","COUNTRY":"USA","NAICS_CODE":"611310","NAICS_DESC":"COLLEGES, UNIVERSITIES, AND PROFESSIONAL SCHOOLS","SOURCE":"https://www.ucmo.edu/campusmap/","SOURCEDATE":"2018-03-22T00:00:00.000Z","VAL_METHOD":"IMAGERY/OTHER","VAL_DATE":"2018-03-22T00:00:00.000Z","WEBSITE":"https://www.ucmo.edu/","TOT_ENROLL":9959,"TOT_EMP":1277,"SHELTERID":"NOT AVAILABLE","SHAPE_Leng":9195.74500893,"SHAPE_Area":1523044.93031,"ORIG_FID":17}},
{"type":"Feature","geometry":{"type":"Point","coordinates":[-10053592.943285376,4669993.361811753]},"properties":{"OBJECTID":2161,"UNIQUEID":"177092","NAME":"CONCORDIA SEMINARY","ADDRESS":"801 SEMINARY PLACE","CITY":"SAINT LOUIS","STATE":"MO","ZIP":"63105","ZIP4":"3196","TELEPHONE":"(314) 505-7000","TYPE":"2","STATUS":"A","POPULATION":731,"COUNTY":"ST. LOUIS","COUNTYFIPS":"29189","COUNTRY":"USA","NAICS_CODE":"611310","NAICS_DESC":"COLLEGES, UNIVERSITIES, AND PROFESSIONAL SCHOOLS","SOURCE":"http://www.csl.edu/wp-content/uploads/2017/04/campusmapMarch2017-final.pdf","SOURCEDATE":"2018-03-22T00:00:00.000Z","VAL_METHOD":"IMAGERY/OTHER","VAL_DATE":"2018-03-22T00:00:00.000Z","WEBSITE":"https://www.csl.edu/","TOT_ENROLL":596,"TOT_EMP":135,"SHELTERID":"NOT AVAILABLE","SHAPE_Leng":3000.36076756,"SHAPE_Area":467918.039083,"ORIG_FID":18}},
{"type":"Feature","geometry":{"type":"Point","coordinates":[-10069051.55700322,4670637.648531077]},"properties":{"OBJECTID":2162,"UNIQUEID":"177126","NAME":"COVENANT THEOLOGICAL SEMINARY","ADDRESS":"12330 CONWAY ROAD","CITY":"SAINT LOUIS","STATE":"MO","ZIP":"63141","ZIP4":"8609","TELEPHONE":"(314) 434-4044","TYPE":"2","STATUS":"A","POPULATION":710,"COUNTY":"ST. LOUIS","COUNTYFIPS":"29189","COUNTRY":"USA","NAICS_CODE":"611310","NAICS_DESC":"COLLEGES, UNIVERSITIES, AND PROFESSIONAL SCHOOLS","SOURCE":"www.covenantseminary.edu","SOURCEDATE":"2018-03-22T00:00:00.000Z","VAL_METHOD":"IMAGERY/OTHER","VAL_DATE":"2018-03-22T00:00:00.000Z","WEBSITE":"www.covenantseminary.edu/","TOT_ENROLL":593,"TOT_EMP":117,"SHELTERID":"NOT AVAILABLE","SHAPE_Leng":1519.4629,"SHAPE_Area":131315.599168,"ORIG_FID":19}},
{"type":"Feature","geometry":{"type":"Point","coordinates":[-10189465.614573516,4884686.475046219]},"properties":{"OBJECTID":2163,"UNIQUEID":"177144","NAME":"CULVER-STOCKTON COLLEGE","ADDRESS":"ONE COLLEGE HILL","CITY":"CANTON","STATE":"MO","ZIP":"63435","ZIP4":"1299","TELEPHONE":"(573) 288-6000","TYPE":"2","STATUS":"A","POPULATION":1221,"COUNTY":"LEWIS","COUNTYFIPS":"29111","COUNTRY":"USA","NAICS_CODE":"611310","NAICS_DESC":"COLLEGES, UNIVERSITIES, AND PROFESSIONAL SCHOOLS","SOURCE":"http://www.culver.edu/future-students/student-resources/campus-map/","SOURCEDATE":"2018-03-22T00:00:00.000Z","VAL_METHOD":"IMAGERY/OTHER","VAL_DATE":"2018-03-22T00:00:00.000Z","WEBSITE":"https://www.culver.edu/","TOT_ENROLL":1006,"TOT_EMP":215,"SHELTERID":"NOT AVAILABLE","SHAPE_Leng":4277.45367722,"SHAPE_Area":647554.149233,"ORIG_FID":20}},
{"type":"Feature","geometry":{"type":"Point","coordinates":[-10384522.61671752,4469753.389122572]},"properties":{"OBJECTID":2164,"UNIQUEID":"177214","NAME":"DRURY UNIVERSITY","ADDRESS":"900 N. BENTON AVE","CITY":"SPRINGFIELD","STATE":"MO","ZIP":"65802","ZIP4":"3791","TELEPHONE":"(417) 873-7879","TYPE":"2","STATUS":"A","POPULATION":2032,"COUNTY":"GREENE","COUNTYFIPS":"29077","COUNTRY":"USA","NAICS_CODE":"611310","NAICS_DESC":"COLLEGES, UNIVERSITIES, AND PROFESSIONAL SCHOOLS","SOURCE":"http://www.drury.edu/admission/vtour/map","SOURCEDATE":"2018-03-22T00:00:00.000Z","VAL_METHOD":"IMAGERY/OTHER","VAL_DATE":"2018-03-22T00:00:00.000Z","WEBSITE":"www.drury.edu/","TOT_ENROLL":1691,"TOT_EMP":341,"SHELTERID":"NOT AVAILABLE","SHAPE_Leng":4591.20363902,"SHAPE_Area":602708.21293,"ORIG_FID":21}},
{"type":"Feature","geometry":{"type":"Point","coordinates":[-10382129.193491312,4470144.724768098]},"properties":{"OBJECTID":2165,"UNIQUEID":"177339","NAME":"EVANGEL UNIVERSITY","ADDRESS":"1111 N GLENSTONE","CITY":"SPRINGFIELD","STATE":"MO","ZIP":"65802","ZIP4":"2125","TELEPHONE":"(417) 865-2815","TYPE":"2","STATUS":"A","POPULATION":2387,"COUNTY":"GREENE","COUNTYFIPS":"29077","COUNTRY":"USA","NAICS_CODE":"611310","NAICS_DESC":"COLLEGES, UNIVERSITIES, AND PROFESSIONAL SCHOOLS","SOURCE":"https://www.evangel.edu/admissions/campus-visits/campus-map/","SOURCEDATE":"2018-03-22T00:00:00.000Z","VAL_METHOD":"IMAGERY/OTHER","VAL_DATE":"2018-03-22T00:00:00.000Z","WEBSITE":"www.evangel.edu/","TOT_ENROLL":1999,"TOT_EMP":388,"SHELTERID":"NOT AVAILABLE","SHAPE_Leng":3881.02234419,"SHAPE_Area":464071.311011,"ORIG_FID":22}},
{"type":"Feature","geometry":{"type":"Point","coordinates":[-10053897.651793912,4670473.768752003]},"properties":{"OBJECTID":2166,"UNIQUEID":"177418","NAME":"FONTBONNE UNIVERSITY","ADDRESS":"6800 WYDOWN BLVD","CITY":"SAINT LOUIS","STATE":"MO","ZIP":"63105","ZIP4":"3098","TELEPHONE":"(314) 862-3456","TYPE":"2","STATUS":"A","POPULATION":1386,"COUNTY":"ST. LOUIS","COUNTYFIPS":"29189","COUNTRY":"USA","NAICS_CODE":"611310","NAICS_DESC":"COLLEGES, UNIVERSITIES, AND PROFESSIONAL SCHOOLS","SOURCE":"https://www.fontbonne.edu/about/campus-map/","SOURCEDATE":"2018-03-22T00:00:00.000Z","VAL_METHOD":"IMAGERY/OTHER","VAL_DATE":"2018-03-22T00:00:00.000Z","WEBSITE":"https://www.fontbonne.edu/","TOT_ENROLL":1112,"TOT_EMP":274,"SHELTERID":"NOT AVAILABLE","SHAPE_Leng":1516.8781967,"SHAPE_Area":111652.122962,"ORIG_FID":23}},
{"type":"Feature","geometry":{"type":"Point","coordinates":[-10173652.335710503,4826976.7647367725]},"properties":{"OBJECTID":2167,"UNIQUEID":"177542","NAME":"HANNIBAL-LAGRANGE UNIVERSITY","ADDRESS":"2800 PALMYRA RD","CITY":"HANNIBAL","STATE":"MO","ZIP":"63401","ZIP4":"NOT AVAILABLE","TELEPHONE":"(573) 221-3675","TYPE":"2","STATUS":"A","POPULATION":903,"COUNTY":"MARION","COUNTYFIPS":"29127","COUNTRY":"USA","NAICS_CODE":"611310","NAICS_DESC":"COLLEGES, UNIVERSITIES, AND PROFESSIONAL SCHOOLS","SOURCE":"http://www.hlg.edu/about-hlgu/map-and-directions/","SOURCEDATE":"2018-03-23T00:00:00.000Z","VAL_METHOD":"IMAGERY/OTHER","VAL_DATE":"2018-03-23T00:00:00.000Z","WEBSITE":"www.hlg.edu/","TOT_ENROLL":739,"TOT_EMP":164,"SHELTERID":"NOT AVAILABLE","SHAPE_Leng":3837.45063277,"SHAPE_Area":715056.421028,"ORIG_FID":24}},
{"type":"Feature","geometry":{"type":"Point","coordinates":[-10043768.63155461,4669212.300307698]},"properties":{"OBJECTID":2168,"UNIQUEID":"177551","NAME":"HARRIS-STOWE STATE UNIVERSITY","ADDRESS":"3026 LACLEDE AVE","CITY":"SAINT LOUIS","STATE":"MO","ZIP":"63103","ZIP4":"2136","TELEPHONE":"(314) 340-3366","TYPE":"1","STATUS":"A","POPULATION":1803,"COUNTY":"ST. LOUIS CITY","COUNTYFIPS":"29510","COUNTRY":"USA","NAICS_CODE":"611310","NAICS_DESC":"COLLEGES, UNIVERSITIES, AND PROFESSIONAL SCHOOLS","SOURCE":"http://go.hssu.edu/rsp_content.cfm?wid=50&pid=479","SOURCEDATE":"2018-03-23T00:00:00.000Z","VAL_METHOD":"IMAGERY/OTHER","VAL_DATE":"2018-03-23T00:00:00.000Z","WEBSITE":"www.hssu.edu/","TOT_ENROLL":1400,"TOT_EMP":403,"SHELTERID":"NOT AVAILABLE","SHAPE_Leng":1917.86706607,"SHAPE_Area":216831.655178,"ORIG_FID":25}},
{"type":"Feature","geometry":{"type":"Point","coordinates":[-10047580.283430994,4669841.139351163]},"properties":{"OBJECTID":2169,"UNIQUEID":"177719","NAME":"BARNES-JEWISH COLLEGE GOLDFARB SCHOOL OF NURSING","ADDRESS":"4483 DUNCAN AVENUE, MAILSTOP 90-36-697","CITY":"SAINT LOUIS","STATE":"MO","ZIP":"63110","ZIP4":"NOT AVAILABLE","TELEPHONE":"(314) 454-7055","TYPE":"2","STATUS":"A","POPULATION":786,"COUNTY":"ST. LOUIS CITY","COUNTYFIPS":"29510","COUNTRY":"USA","NAICS_CODE":"611310","NAICS_DESC":"COLLEGES, UNIVERSITIES, AND PROFESSIONAL SCHOOLS","SOURCE":"www.barnesjewishcollege.edu","SOURCEDATE":"2018-03-23T00:00:00.000Z","VAL_METHOD":"IMAGERY/OTHER","VAL_DATE":"2018-03-23T00:00:00.000Z","WEBSITE":"www.barnesjewishcollege.edu/","TOT_ENROLL":627,"TOT_EMP":159,"SHELTERID":"NOT AVAILABLE","SHAPE_Leng":422.01273297094565,"SHAPE_Area":10440.9514929,"ORIG_FID":26}},
{"type":"Feature","geometry":{"type":"Point","coordinates":[-10306927.108842548,4894061.535305979]},"properties":{"OBJECTID":2170,"UNIQUEID":"177834","NAME":"A T STILL UNIVERSITY OF HEALTH SCIENCES","ADDRESS":"800 W JEFFERSON","CITY":"KIRKSVILLE","STATE":"MO","ZIP":"63501","ZIP4":"NOT AVAILABLE","TELEPHONE":"(660) 626-2121","TYPE":"2","STATUS":"A","POPULATION":5433,"COUNTY":"ADAIR","COUNTYFIPS":"29001","COUNTRY":"USA","NAICS_CODE":"611310","NAICS_DESC":"COLLEGES, UNIVERSITIES, AND PROFESSIONAL SCHOOLS","SOURCE":"WWW.ATSU.EDU","SOURCEDATE":"2018-03-23T00:00:00.000Z","VAL_METHOD":"IMAGERY/OTHER","VAL_DATE":"2018-03-23T00:00:00.000Z","WEBSITE":"www.atsu.edu/","TOT_ENROLL":3995,"TOT_EMP":1438,"SHELTERID":"NOT AVAILABLE","SHAPE_Leng":1938.62333541,"SHAPE_Area":205833.857729,"ORIG_FID":27}},
{"type":"Feature","geometry":{"type":"Point","coordinates":[-10260429.29324772,4659274.046157718]},"properties":{"OBJECTID":2171,"UNIQUEID":"177940","NAME":"LINCOLN UNIVERSITY","ADDRESS":"820 CHESTNUT STREET","CITY":"JEFFERSON CITY","STATE":"MO","ZIP":"65101","ZIP4":"NOT AVAILABLE","TELEPHONE":"(573) 681-5000","TYPE":"1","STATUS":"A","POPULATION":2476,"COUNTY":"COLE","COUNTYFIPS":"29051","COUNTRY":"USA","NAICS_CODE":"611310","NAICS_DESC":"COLLEGES, UNIVERSITIES, AND PROFESSIONAL SCHOOLS","SOURCE":"https://www.lincolnu.edu/web/police-department/map-and-directions","SOURCEDATE":"2018-03-23T00:00:00.000Z","VAL_METHOD":"IMAGERY/OTHER","VAL_DATE":"2018-03-23T00:00:00.000Z","WEBSITE":"https://www.lincolnu.edu/","TOT_ENROLL":2012,"TOT_EMP":464,"SHELTERID":"NOT AVAILABLE","SHAPE_Leng":5953.79312146,"SHAPE_Area":799241.351154,"ORIG_FID":28}},
{"type":"Feature","geometry":{"type":"Point","coordinates":[-10074942.850550551,4691283.519616668]},"properties":{"OBJECTID":2172,"UNIQUEID":"177968","NAME":"LINDENWOOD UNIVERSITY","ADDRESS":"209 S KINGSHIGHWAY","CITY":"SAINT CHARLES","STATE":"MO","ZIP":"63301","ZIP4":"1695","TELEPHONE":"(636) 949-2000","TYPE":"2","STATUS":"A","POPULATION":8698,"COUNTY":"ST. CHARLES","COUNTYFIPS":"29183","COUNTRY":"USA","NAICS_CODE":"611310","NAICS_DESC":"COLLEGES, UNIVERSITIES, AND PROFESSIONAL SCHOOLS","SOURCE":"www.lindenwood.edu/campus-map","SOURCEDATE":"2018-03-23T00:00:00.000Z","VAL_METHOD":"IMAGERY/OTHER","VAL_DATE":"2018-03-23T00:00:00.000Z","WEBSITE":"https://www.lindenwood.edu/","TOT_ENROLL":7382,"TOT_EMP":1316,"SHELTERID":"NOT AVAILABLE","SHAPE_Leng":6774.23865899,"SHAPE_Area":1540050.63929,"ORIG_FID":29}},
{"type":"Feature","geometry":{"type":"Point","coordinates":[-10078904.269203257,4669199.96866208]},"properties":{"OBJECTID":2174,"UNIQUEID":"177986","NAME":"LOGAN UNIVERSITY","ADDRESS":"1851 SCHOETTLER RD","CITY":"CHESTERFIELD","STATE":"MO","ZIP":"63017","ZIP4":"NOT AVAILABLE","TELEPHONE":"(636) 227-2100","TYPE":"2","STATUS":"A","POPULATION":2125,"COUNTY":"ST. LOUIS","COUNTYFIPS":"29189","COUNTRY":"USA","NAICS_CODE":"611310","NAICS_DESC":"COLLEGES, UNIVERSITIES, AND PROFESSIONAL SCHOOLS","SOURCE":"www.logan.edu","SOURCEDATE":"2018-03-23T00:00:00.000Z","VAL_METHOD":"IMAGERY/OTHER","VAL_DATE":"2018-03-23T00:00:00.000Z","WEBSITE":"https://www.logan.edu/","TOT_ENROLL":1806,"TOT_EMP":319,"SHELTERID":"NOT AVAILABLE","SHAPE_Leng":3826.03014377,"SHAPE_Area":763557.711401,"ORIG_FID":30}},
{"type":"Feature","geometry":{"type":"Point","coordinates":[-10527827.774822649,4748616.114661961]},"properties":{"OBJECTID":2175,"UNIQUEID":"178208","NAME":"MIDWESTERN BAPTIST THEOLOGICAL SEMINARY","ADDRESS":"5001 N. OAK TRAFFICWAY","CITY":"KANSAS CITY","STATE":"MO","ZIP":"64118","ZIP4":"4697","TELEPHONE":"(816) 414-3700","TYPE":"2","STATUS":"A","POPULATION":3770,"COUNTY":"CLAY","COUNTYFIPS":"29047","COUNTRY":"USA","NAICS_CODE":"611310","NAICS_DESC":"COLLEGES, UNIVERSITIES, AND PROFESSIONAL SCHOOLS","SOURCE":"https://www.mbts.edu","SOURCEDATE":"2018-03-23T00:00:00.000Z","VAL_METHOD":"IMAGERY/OTHER","VAL_DATE":"2018-03-23T00:00:00.000Z","WEBSITE":"https://www.mbts.edu/","TOT_ENROLL":3432,"TOT_EMP":338,"SHELTERID":"NOT AVAILABLE","SHAPE_Leng":2967.40130075,"SHAPE_Area":514063.409955,"ORIG_FID":31}},
{"type":"Feature","geometry":{"type":"Point","coordinates":[-10070188.673137428,4670556.457277125]},"properties":{"OBJECTID":2177,"UNIQUEID":"178244","NAME":"MISSOURI BAPTIST UNIVERSITY","ADDRESS":"ONE COLLEGE PARK DR","CITY":"SAINT LOUIS","STATE":"MO","ZIP":"63141","ZIP4":"8698","TELEPHONE":"(877) 434-1115","TYPE":"2","STATUS":"A","POPULATION":5365,"COUNTY":"ST. LOUIS","COUNTYFIPS":"29189","COUNTRY":"USA","NAICS_CODE":"611310","NAICS_DESC":"COLLEGES, UNIVERSITIES, AND PROFESSIONAL SCHOOLS","SOURCE":"https://12566-presscdn-0-30-pagely.netdna-ssl.com/wp-content/uploads/2013/02/campus-map-2016.pdf","SOURCEDATE":"2018-03-26T00:00:00.000Z","VAL_METHOD":"IMAGERY/OTHER","VAL_DATE":"2018-03-26T00:00:00.000Z","WEBSITE":"www.mobap.edu/","TOT_ENROLL":4860,"TOT_EMP":505,"SHELTERID":"NOT AVAILABLE","SHAPE_Leng":3260.40171565,"SHAPE_Area":412449.340992,"ORIG_FID":32}},
{"type":"Feature","geometry":{"type":"Point","coordinates":[-10515327.069805877,4452532.8585801525]},"properties":{"OBJECTID":2178,"UNIQUEID":"178341","NAME":"MISSOURI SOUTHERN STATE UNIVERSITY","ADDRESS":"3950 E. NEWMAN ROAD","CITY":"JOPLIN","STATE":"MO","ZIP":"64801","ZIP4":"1595","TELEPHONE":"(866) 818-6778","TYPE":"1","STATUS":"A","POPULATION":5711,"COUNTY":"JASPER","COUNTYFIPS":"29097","COUNTRY":"USA","NAICS_CODE":"611310","NAICS_DESC":"COLLEGES, UNIVERSITIES, AND PROFESSIONAL SCHOOLS","SOURCE":"http://www.mssu.edu/campus-map.pdf","SOURCEDATE":"2018-03-26T00:00:00.000Z","VAL_METHOD":"IMAGERY/OTHER","VAL_DATE":"2018-03-26T00:00:00.000Z","WEBSITE":"www.mssu.edu/","TOT_ENROLL":5045,"TOT_EMP":666,"SHELTERID":"NOT AVAILABLE","SHAPE_Leng":5160.71614594,"SHAPE_Area":1368839.16378,"ORIG_FID":33}},
{"type":"Feature","geometry":{"type":"Point","coordinates":[-10373863.81481401,4736950.152667987]},"properties":{"OBJECTID":2179,"UNIQUEID":"178369","NAME":"MISSOURI VALLEY COLLEGE","ADDRESS":"500 E COLLEGE ST","CITY":"MARSHALL","STATE":"MO","ZIP":"65340","ZIP4":"NOT AVAILABLE","TELEPHONE":"(660) 831-4000","TYPE":"2","STATUS":"A","POPULATION":1946,"COUNTY":"SALINE","COUNTYFIPS":"29195","COUNTRY":"USA","NAICS_CODE":"611310","NAICS_DESC":"COLLEGES, UNIVERSITIES, AND PROFESSIONAL SCHOOLS","SOURCE":"www.moval.edu/campusmap","SOURCEDATE":"2018-03-26T00:00:00.000Z","VAL_METHOD":"IMAGERY/OTHER","VAL_DATE":"2018-03-26T00:00:00.000Z","WEBSITE":"https://www.moval.edu/","TOT_ENROLL":1682,"TOT_EMP":264,"SHELTERID":"NOT AVAILABLE","SHAPE_Leng":3577.5349017,"SHAPE_Area":383041.101666,"ORIG_FID":34}},
{"type":"Feature","geometry":{"type":"Point","coordinates":[-10551288.427328002,4831374.928842324]},"properties":{"OBJECTID":2180,"UNIQUEID":"178387","NAME":"MISSOURI WESTERN STATE UNIVERSITY","ADDRESS":"4525 DOWNS DR","CITY":"SAINT JOSEPH","STATE":"MO","ZIP":"64507","ZIP4":"NOT AVAILABLE","TELEPHONE":"(816) 271-4200","TYPE":"1","STATUS":"A","POPULATION":5448,"COUNTY":"BUCHANAN","COUNTYFIPS":"29021","COUNTRY":"USA","NAICS_CODE":"611310","NAICS_DESC":"COLLEGES, UNIVERSITIES, AND PROFESSIONAL SCHOOLS","SOURCE":"https://aps1.missouriwestern.edu/map/index.asp","SOURCEDATE":"2018-03-26T00:00:00.000Z","VAL_METHOD":"IMAGERY/OTHER","VAL_DATE":"2018-03-26T00:00:00.000Z","WEBSITE":"https://www.missouriwestern.edu/","TOT_ENROLL":4911,"TOT_EMP":537,"SHELTERID":"NOT AVAILABLE","SHAPE_Leng":7345.24459424,"SHAPE_Area":2630428.81015,"ORIG_FID":35}},
{"type":"Feature","geometry":{"type":"Point","coordinates":[-10216769.331091724,4572696.020975582]},"properties":{"OBJECTID":2181,"UNIQUEID":"178411","NAME":"MISSOURI UNIVERSITY OF SCIENCE AND TECHNOLOGY","ADDRESS":"300 W.13TH STREET","CITY":"ROLLA","STATE":"MO","ZIP":"65409","ZIP4":"NOT AVAILABLE","TELEPHONE":"(573) 341-4111","TYPE":"1","STATUS":"A","POPULATION":8898,"COUNTY":"PHELPS","COUNTYFIPS":"29161","COUNTRY":"USA","NAICS_CODE":"611310","NAICS_DESC":"COLLEGES, UNIVERSITIES, AND PROFESSIONAL SCHOOLS","SOURCE":"https://www.mst.edu/map/","SOURCEDATE":"2018-03-26T00:00:00.000Z","VAL_METHOD":"IMAGERY/OTHER","VAL_DATE":"2018-03-26T00:00:00.000Z","WEBSITE":"https://www.mst.edu/","TOT_ENROLL":7642,"TOT_EMP":1256,"SHELTERID":"NOT AVAILABLE","SHAPE_Leng":10689.5960159,"SHAPE_Area":1587355.35303,"ORIG_FID":36}},
{"type":"Feature","geometry":{"type":"Point","coordinates":[-10053037.194946695,4680186.720138827]},"properties":{"OBJECTID":2182,"UNIQUEID":"178420","NAME":"UNIVERSITY OF MISSOURI-ST LOUIS","ADDRESS":"ONE UNIVERSITY BOULEVARD","CITY":"SAINT LOUIS","STATE":"MO","ZIP":"63121","ZIP4":"4400","TELEPHONE":"(314) 516-5000","TYPE":"1","STATUS":"A","POPULATION":15528,"COUNTY":"ST. LOUIS","COUNTYFIPS":"29189","COUNTRY":"USA","NAICS_CODE":"611310","NAICS_DESC":"COLLEGES, UNIVERSITIES, AND PROFESSIONAL SCHOOLS","SOURCE":"http://umsl.edu/maps.html","SOURCEDATE":"2018-03-26T00:00:00.000Z","VAL_METHOD":"IMAGERY/OTHER","VAL_DATE":"2018-03-26T00:00:00.000Z","WEBSITE":"www.umsl.edu/","TOT_ENROLL":13874,"TOT_EMP":1654,"SHELTERID":"NOT AVAILABLE","SHAPE_Leng":9924.22115322,"SHAPE_Area":2071193.24153,"ORIG_FID":37}},
{"type":"Feature","geometry":{"type":"Point","coordinates":[-10306487.91769878,4892776.808708775]},"properties":{"OBJECTID":2183,"UNIQUEID":"178615","NAME":"TRUMAN STATE UNIVERSITY","ADDRESS":"100 E NORMAL AVENUE","CITY":"KIRKSVILLE","STATE":"MO","ZIP":"63501","ZIP4":"4221","TELEPHONE":"(660) 785-4000","TYPE":"1","STATUS":"A","POPULATION":5339,"COUNTY":"ADAIR","COUNTYFIPS":"29001","COUNTRY":"USA","NAICS_CODE":"611310","NAICS_DESC":"COLLEGES, UNIVERSITIES, AND PROFESSIONAL SCHOOLS","SOURCE":"http://www.truman.edu/admission-cost/visit-truman/campus-map-directions/campus-map/","SOURCEDATE":"2018-03-26T00:00:00.000Z","VAL_METHOD":"IMAGERY/OTHER","VAL_DATE":"2018-03-26T00:00:00.000Z","WEBSITE":"https://www.truman.edu/","TOT_ENROLL":4655,"TOT_EMP":684,"SHELTERID":"NOT AVAILABLE","SHAPE_Leng":7844.73959247,"SHAPE_Area":1401354.32074,"ORIG_FID":38}},
{"type":"Feature","geometry":{"type":"Point","coordinates":[-10563048.291963438,4917682.929654111]},"properties":{"OBJECTID":2184,"UNIQUEID":"178624","NAME":"NORTHWEST MISSOURI STATE UNIVERSITY","ADDRESS":"800 UNIVERSITY DRIVE","CITY":"MARYVILLE","STATE":"MO","ZIP":"64468","ZIP4":"6001","TELEPHONE":"(660) 562-1212","TYPE":"1","STATUS":"A","POPULATION":8049,"COUNTY":"NODAWAY","COUNTYFIPS":"29147","COUNTRY":"USA","NAICS_CODE":"611310","NAICS_DESC":"COLLEGES, UNIVERSITIES, AND PROFESSIONAL SCHOOLS","SOURCE":"https://www.nwmissouri.edu/admissions/PDF/campusmap.pdf","SOURCEDATE":"2018-03-26T00:00:00.000Z","VAL_METHOD":"IMAGERY/OTHER","VAL_DATE":"2018-03-26T00:00:00.000Z","WEBSITE":"https://www.nwmissouri.edu/","TOT_ENROLL":7267,"TOT_EMP":782,"SHELTERID":"NOT AVAILABLE","SHAPE_Leng":9070.18942572,"SHAPE_Area":3069950.06484,"ORIG_FID":39}},
{"type":"Feature","geometry":{"type":"Point","coordinates":[-10520843.111333659,4453733.385233105]},"properties":{"OBJECTID":2185,"UNIQUEID":"178679","NAME":"OZARK CHRISTIAN COLLEGE","ADDRESS":"1111 N MAIN ST","CITY":"JOPLIN","STATE":"MO","ZIP":"64801","ZIP4":"NOT AVAILABLE","TELEPHONE":"(417) 626-1236","TYPE":"2","STATUS":"A","POPULATION":781,"COUNTY":"JASPER","COUNTYFIPS":"29097","COUNTRY":"USA","NAICS_CODE":"611310","NAICS_DESC":"COLLEGES, UNIVERSITIES, AND PROFESSIONAL SCHOOLS","SOURCE":"www.occ.edu","SOURCEDATE":"2018-03-26T00:00:00.000Z","VAL_METHOD":"IMAGERY/OTHER","VAL_DATE":"2018-03-26T00:00:00.000Z","WEBSITE":"www.occ.edu/","TOT_ENROLL":629,"TOT_EMP":152,"SHELTERID":"NOT AVAILABLE","SHAPE_Leng":3164.42842245,"SHAPE_Area":466199.143777,"ORIG_FID":40}},
{"type":"Feature","geometry":{"type":"Point","coordinates":[-10539346.338528043,4749103.617681476]},"properties":{"OBJECTID":2186,"UNIQUEID":"178721","NAME":"PARK UNIVERSITY","ADDRESS":"8700 NW RIVER PARK DR","CITY":"PARKVILLE","STATE":"MO","ZIP":"64152","ZIP4":"3795","TELEPHONE":"(816) 741-2000","TYPE":"2","STATUS":"A","POPULATION":11508,"COUNTY":"PLATTE","COUNTYFIPS":"29165","COUNTRY":"USA","NAICS_CODE":"611310","NAICS_DESC":"COLLEGES, UNIVERSITIES, AND PROFESSIONAL SCHOOLS","SOURCE":"https://www.park.edu/campus-maps/parkville-upper-campus-maps/","SOURCEDATE":"2018-03-26T00:00:00.000Z","VAL_METHOD":"IMAGERY/OTHER","VAL_DATE":"2018-03-26T00:00:00.000Z","WEBSITE":"www.park.edu/","TOT_ENROLL":10165,"TOT_EMP":1343,"SHELTERID":"NOT AVAILABLE","SHAPE_Leng":7098.32973887,"SHAPE_Area":967563.76445,"ORIG_FID":41}},
{"type":"Feature","geometry":{"type":"Point","coordinates":[-10527609.723345846,4726098.65756411]},"properties":{"OBJECTID":2188,"UNIQUEID":"179043","NAME":"ROCKHURST UNIVERSITY","ADDRESS":"1100 ROCKHURST RD","CITY":"KANSAS CITY","STATE":"MO","ZIP":"64110","ZIP4":"2561","TELEPHONE":"(816) 501-4000","TYPE":"2","STATUS":"A","POPULATION":4159,"COUNTY":"JACKSON","COUNTYFIPS":"29095","COUNTRY":"USA","NAICS_CODE":"611310","NAICS_DESC":"COLLEGES, UNIVERSITIES, AND PROFESSIONAL SCHOOLS","SOURCE":"https://ww2.rockhurst.edu/visit#map","SOURCEDATE":"2018-03-27T00:00:00.000Z","VAL_METHOD":"IMAGERY/OTHER","VAL_DATE":"2018-03-27T00:00:00.000Z","WEBSITE":"https://www.rockhurst.edu/","TOT_ENROLL":3688,"TOT_EMP":471,"SHELTERID":"NOT AVAILABLE","SHAPE_Leng":3461.63955964,"SHAPE_Area":389942.264241,"ORIG_FID":42}},
{"type":"Feature","geometry":{"type":"Point","coordinates":[-10047784.22061287,4669762.952176874]},"properties":{"OBJECTID":2189,"UNIQUEID":"179265","NAME":"UNIVERSITY OF HEALTH SCIENCES AND PHARMACY IN ST. LOUIS","ADDRESS":"1 PHARMACY PLACE","CITY":"SAINT LOUIS","STATE":"MO","ZIP":"63110","ZIP4":"1088","TELEPHONE":"(800) 278-5267","TYPE":"2","STATUS":"A","POPULATION":1273,"COUNTY":"ST. LOUIS CITY","COUNTYFIPS":"29510","COUNTRY":"USA","NAICS_CODE":"611310","NAICS_DESC":"COLLEGES, UNIVERSITIES, AND PROFESSIONAL SCHOOLS","SOURCE":"http://www.stlcop.edu/about/campus/maps.html","SOURCEDATE":"2018-03-27T00:00:00.000Z","VAL_METHOD":"IMAGERY/OTHER","VAL_DATE":"2018-03-27T00:00:00.000Z","WEBSITE":"www.uhsp.edu/","TOT_ENROLL":998,"TOT_EMP":275,"SHELTERID":"NOT AVAILABLE","SHAPE_Leng":1820.85488104,"SHAPE_Area":96372.0612751,"ORIG_FID":43}},
{"type":"Feature","geometry":{"type":"Point","coordinates":[-10379237.809122428,4386027.272543947]},"properties":{"OBJECTID":2191,"UNIQUEID":"178697","NAME":"COLLEGE OF THE OZARKS","ADDRESS":"100 OPPORTUNITY AVENUE","CITY":"POINT LOOKOUT","STATE":"MO","ZIP":"65726","ZIP4":"0017","TELEPHONE":"(417) 334-6411","TYPE":"2","STATUS":"A","POPULATION":1882,"COUNTY":"TANEY","COUNTYFIPS":"29213","COUNTRY":"USA","NAICS_CODE":"611310","NAICS_DESC":"COLLEGES, UNIVERSITIES, AND PROFESSIONAL SCHOOLS","SOURCE":"http://www.cofo.edu/","SOURCEDATE":"2018-03-26T00:00:00.000Z","VAL_METHOD":"IMAGERY/OTHER","VAL_DATE":"2018-03-26T00:00:00.000Z","WEBSITE":"www.cofo.edu/","TOT_ENROLL":1489,"TOT_EMP":393,"SHELTERID":"NOT AVAILABLE","SHAPE_Leng":5375.48388845,"SHAPE_Area":1341249.99807,"ORIG_FID":44}},
{"type":"Feature","geometry":{"type":"Point","coordinates":[-10277132.837026967,4714729.871058245]},"properties":{"OBJECTID":2192,"UNIQUEID":"179548","NAME":"STEPHENS COLLEGE","ADDRESS":"1200 E BROADWAY","CITY":"COLUMBIA","STATE":"MO","ZIP":"65215","ZIP4":"NOT AVAILABLE","TELEPHONE":"(573) 442-2211","TYPE":"2","STATUS":"A","POPULATION":882,"COUNTY":"BOONE","COUNTYFIPS":"29019","COUNTRY":"USA","NAICS_CODE":"611310","NAICS_DESC":"COLLEGES, UNIVERSITIES, AND PROFESSIONAL SCHOOLS","SOURCE":"https://www.stephens.edu/assets/Docs/Student-Life/Complete-Facilities-Map.pdf","SOURCEDATE":"2018-03-28T00:00:00.000Z","VAL_METHOD":"IMAGERY/OTHER","VAL_DATE":"2018-03-28T00:00:00.000Z","WEBSITE":"https://www.stephens.edu/","TOT_ENROLL":622,"TOT_EMP":260,"SHELTERID":"NOT AVAILABLE","SHAPE_Leng":3066.41038272,"SHAPE_Area":250021.939667,"ORIG_FID":45}},
{"type":"Feature","geometry":{"type":"Point","coordinates":[-10384097.162511095,4467236.285254613]},"properties":{"OBJECTID":2193,"UNIQUEID":"179566","NAME":"MISSOURI STATE UNIVERSITY-SPRINGFIELD","ADDRESS":"901 S NATIONAL AVENUE","CITY":"SPRINGFIELD","STATE":"MO","ZIP":"65897","ZIP4":"NOT AVAILABLE","TELEPHONE":"(417) 836-5000","TYPE":"1","STATUS":"A","POPULATION":26289,"COUNTY":"GREENE","COUNTYFIPS":"29077","COUNTRY":"USA","NAICS_CODE":"611310","NAICS_DESC":"COLLEGES, UNIVERSITIES, AND PROFESSIONAL SCHOOLS","SOURCE":"www.missouristate.edu/maps","SOURCEDATE":"2018-03-27T00:00:00.000Z","VAL_METHOD":"IMAGERY/OTHER","VAL_DATE":"2018-03-27T00:00:00.000Z","WEBSITE":"www.missouristate.edu/","TOT_ENROLL":23505,"TOT_EMP":2784,"SHELTERID":"NOT AVAILABLE","SHAPE_Leng":9666.71142843,"SHAPE_Area":1617815.45325,"ORIG_FID":46}},
{"type":"Feature","geometry":{"type":"Point","coordinates":[-10050903.850495897,4670608.70170345]},"properties":{"OBJECTID":2196,"UNIQUEID":"179867","NAME":"WASHINGTON UNIVERSITY IN ST LOUIS","ADDRESS":"ONE BROOKINGS DRIVE","CITY":"SAINT LOUIS","STATE":"MO","ZIP":"63130","ZIP4":"4899","TELEPHONE":"(314) 935-5000","TYPE":"2","STATUS":"A","POPULATION":32351,"COUNTY":"ST. LOUIS","COUNTYFIPS":"29189","COUNTRY":"USA","NAICS_CODE":"611310","NAICS_DESC":"COLLEGES, UNIVERSITIES, AND PROFESSIONAL SCHOOLS","SOURCE":"https://wustl.edu/about/campuses/maps-directions-parking/","SOURCEDATE":"2018-03-28T00:00:00.000Z","VAL_METHOD":"IMAGERY/OTHER","VAL_DATE":"2018-03-28T00:00:00.000Z","WEBSITE":"www.wustl.edu/","TOT_ENROLL":15449,"TOT_EMP":16902,"SHELTERID":"NOT AVAILABLE","SHAPE_Leng":15995.2639117,"SHAPE_Area":2344216.85072,"ORIG_FID":47}},
{"type":"Feature","geometry":{"type":"Point","coordinates":[-10236556.873483311,4700062.688811005]},"properties":{"OBJECTID":2197,"UNIQUEID":"179946","NAME":"WESTMINSTER COLLEGE","ADDRESS":"501 WESTMINSTER AVE","CITY":"FULTON","STATE":"MO","ZIP":"65251","ZIP4":"1299","TELEPHONE":"(573) 642-3361","TYPE":"2","STATUS":"A","POPULATION":793,"COUNTY":"CALLAWAY","COUNTYFIPS":"29027","COUNTRY":"USA","NAICS_CODE":"611310","NAICS_DESC":"COLLEGES, UNIVERSITIES, AND PROFESSIONAL SCHOOLS","SOURCE":"http://www.westminster-mo.edu/explore/Documents/CampusMap_14.pdf","SOURCEDATE":"2018-03-28T00:00:00.000Z","VAL_METHOD":"IMAGERY/OTHER","VAL_DATE":"2018-03-28T00:00:00.000Z","WEBSITE":"www.wcmo.edu/","TOT_ENROLL":609,"TOT_EMP":184,"SHELTERID":"NOT AVAILABLE","SHAPE_Leng":4096.80472663,"SHAPE_Area":600982.698192,"ORIG_FID":48}},
{"type":"Feature","geometry":{"type":"Point","coordinates":[-10509801.329171957,4757737.8732109675]},"properties":{"OBJECTID":2198,"UNIQUEID":"179955","NAME":"WILLIAM JEWELL COLLEGE","ADDRESS":"500 COLLEGE HILL","CITY":"LIBERTY","STATE":"MO","ZIP":"64068","ZIP4":"1896","TELEPHONE":"(816) 415-5979","TYPE":"2","STATUS":"A","POPULATION":1012,"COUNTY":"CLAY","COUNTYFIPS":"29047","COUNTRY":"USA","NAICS_CODE":"611310","NAICS_DESC":"COLLEGES, UNIVERSITIES, AND PROFESSIONAL SCHOOLS","SOURCE":"https://jewell.edu/join/visit/campus-map","SOURCEDATE":"2018-03-28T00:00:00.000Z","VAL_METHOD":"IMAGERY/OTHER","VAL_DATE":"2018-03-28T00:00:00.000Z","WEBSITE":"https://www.jewell.edu/","TOT_ENROLL":751,"TOT_EMP":261,"SHELTERID":"NOT AVAILABLE","SHAPE_Leng":5184.69928999,"SHAPE_Area":1148763.22751,"ORIG_FID":49}},
{"type":"Feature","geometry":{"type":"Point","coordinates":[-10317618.653909413,4743135.7897845255]},"properties":{"OBJECTID":3220,"UNIQUEID":"445267","NAME":"CENTRAL METHODIST UNIVERSITY-COLLEGE OF GRADUATE AND EXTENDED STUDIES","ADDRESS":"411 CENTRAL METHODIST SQUARE","CITY":"FAYETTE","STATE":"MO","ZIP":"65248","ZIP4":"1198","TELEPHONE":"(660) 248-3391","TYPE":"2","STATUS":"A","POPULATION":3623,"COUNTY":"HOWARD","COUNTYFIPS":"29089","COUNTRY":"USA","NAICS_CODE":"611310","NAICS_DESC":"COLLEGES, UNIVERSITIES, AND PROFESSIONAL SCHOOLS","SOURCE":"www.centralmethodist.edu/campusmap","SOURCEDATE":"2018-04-02T00:00:00.000Z","VAL_METHOD":"IMAGERY/OTHER","VAL_DATE":"2018-04-02T00:00:00.000Z","WEBSITE":"www.centralmethodist.edu/","TOT_ENROLL":3429,"TOT_EMP":194,"SHELTERID":"10806415","SHAPE_Leng":1784.98684109,"SHAPE_Area":185923.52985,"ORIG_FID":50}},
{"type":"Feature","geometry":{"type":"Point","coordinates":[-10067246.774635939,4679072.358148476]},"properties":{"OBJECTID":3288,"UNIQUEID":"466921","NAME":"CHAMBERLAIN UNIVERSITY-MISSOURI","ADDRESS":"11830 WESTLINE INDUSTRIAL DRIVE, SUITE 106","CITY":"ST. LOUIS","STATE":"MO","ZIP":"63146","ZIP4":"NOT AVAILABLE","TELEPHONE":"(314) 991-6200","TYPE":"3","STATUS":"A","POPULATION":466,"COUNTY":"ST. LOUIS","COUNTYFIPS":"29189","COUNTRY":"USA","NAICS_CODE":"611310","NAICS_DESC":"COLLEGES, UNIVERSITIES, AND PROFESSIONAL SCHOOLS","SOURCE":"www.chamberlain.edu","SOURCEDATE":"2018-04-02T00:00:00.000Z","VAL_METHOD":"IMAGERY/OTHER","VAL_DATE":"2018-04-02T00:00:00.000Z","WEBSITE":"https://www.chamberlain.edu/","TOT_ENROLL":466,"TOT_EMP":-999,"SHELTERID":"NOT AVAILABLE","SHAPE_Leng":1093.60512134,"SHAPE_Area":54326.6466438,"ORIG_FID":51}},
{"type":"Feature","geometry":{"type":"Point","coordinates":[-10106908.740541266,4690261.911475368]},"properties":{"OBJECTID":4355,"UNIQUEID":"17805901","NAME":"MARYVILLE UNIVERSITY - LAKE ST LOUIS CAMPUS","ADDRESS":"3401 TECHNOLOGY DRIVE","CITY":"LAKE ST LOUIS","STATE":"MO","ZIP":"63367","ZIP4":"NOT AVAILABLE","TELEPHONE":"(314) 529-9334","TYPE":"2","STATUS":"A","POPULATION":-999,"COUNTY":"ST. CHARLES","COUNTYFIPS":"29183","COUNTRY":"USA","NAICS_CODE":"611310","NAICS_DESC":"COLLEGES, UNIVERSITIES, AND PROFESSIONAL SCHOOLS","SOURCE":"https://www.maryville.edu/about/locations/","SOURCEDATE":"2019-02-19T00:00:00.000Z","VAL_METHOD":"IMAGERY/OTHER","VAL_DATE":"2019-02-19T00:00:00.000Z","WEBSITE":"https://www.maryville.edu/about/locations/","TOT_ENROLL":-999,"TOT_EMP":-999,"SHELTERID":"NOT AVAILABLE","SHAPE_Leng":621.2459108890923,"SHAPE_Area":19092.2080994,"ORIG_FID":52}},
{"type":"Feature","geometry":{"type":"Point","coordinates":[-10063566.221899841,4654011.251061459]},"properties":{"OBJECTID":4356,"UNIQUEID":"17805902","NAME":"MARYVILLE UNIVERSITY - SUNSET HILLS CAMPUS","ADDRESS":"12250 WEBER HILL ROAD","CITY":"SUNSET HILLS","STATE":"MO","ZIP":"63127","ZIP4":"NOT AVAILABLE","TELEPHONE":"(314) 529-9334","TYPE":"2","STATUS":"A","POPULATION":-999,"COUNTY":"ST. LOUIS","COUNTYFIPS":"29189","COUNTRY":"USA","NAICS_CODE":"611310","NAICS_DESC":"COLLEGES, UNIVERSITIES, AND PROFESSIONAL SCHOOLS","SOURCE":"https://www.maryville.edu/about/locations/","SOURCEDATE":"2019-02-19T00:00:00.000Z","VAL_METHOD":"IMAGERY/OTHER","VAL_DATE":"2019-02-19T00:00:00.000Z","WEBSITE":"https://www.maryville.edu/about/locations/","TOT_ENROLL":-999,"TOT_EMP":-999,"SHELTERID":"NOT AVAILABLE","SHAPE_Leng":524.4686911290622,"SHAPE_Area":17138.5009913,"ORIG_FID":53}},
{"type":"Feature","geometry":{"type":"Point","coordinates":[-10208317.18101831,4438336.716657062]},"properties":{"OBJECTID":4399,"UNIQUEID":"17932601","NAME":"SOUTHWEST BAPTIST UNIVERSITY - MOUNTAIN VIEW","ADDRESS":"209 W 1ST ST, MOUNTAIN VIEW","CITY":"MOUNTAIN VIEW","STATE":"MO","ZIP":"65548","ZIP4":"NOT AVAILABLE","TELEPHONE":"(417) 934-2999","TYPE":"2","STATUS":"A","POPULATION":-999,"COUNTY":"HOWELL","COUNTYFIPS":"29091","COUNTRY":"USA","NAICS_CODE":"611310","NAICS_DESC":"COLLEGES, UNIVERSITIES, AND PROFESSIONAL SCHOOLS","SOURCE":"https://www.sbuniv.edu/about/campus-locations/","SOURCEDATE":"2019-01-30T00:00:00.000Z","VAL_METHOD":"IMAGERY/OTHER","VAL_DATE":"2019-01-30T00:00:00.000Z","WEBSITE":"https://www.sbuniv.edu","TOT_ENROLL":-999,"TOT_EMP":-999,"SHELTERID":"NOT AVAILABLE","SHAPE_Leng":235.85685782849248,"SHAPE_Area":3462.14425746,"ORIG_FID":54}},
{"type":"Feature","geometry":{"type":"Point","coordinates":[-10190654.711428609,4528729.144650083]},"properties":{"OBJECTID":4401,"UNIQUEID":"17932602","NAME":"SOUTHWEST BAPTIST UNIVERSITY - SALEM","ADDRESS":"501 S GRAND AVE","CITY":"SALEM","STATE":"MO","ZIP":"65560","ZIP4":"NOT AVAILABLE","TELEPHONE":"(573) 729-7071","TYPE":"2","STATUS":"A","POPULATION":-999,"COUNTY":"DENT","COUNTYFIPS":"29065","COUNTRY":"USA","NAICS_CODE":"611310","NAICS_DESC":"COLLEGES, UNIVERSITIES, AND PROFESSIONAL SCHOOLS","SOURCE":"https://www.sbuniv.edu/about/campus-locations/","SOURCEDATE":"2019-01-30T00:00:00.000Z","VAL_METHOD":"IMAGERY/OTHER","VAL_DATE":"2019-01-30T00:00:00.000Z","WEBSITE":"https://www.sbuniv.edu","TOT_ENROLL":-999,"TOT_EMP":-999,"SHELTERID":"NOT AVAILABLE","SHAPE_Leng":653.7930656520819,"SHAPE_Area":25875.1763595,"ORIG_FID":55}},
{"type":"Feature","geometry":{"type":"Point","coordinates":[-10383117.19985113,4457693.485059692]},"properties":{"OBJECTID":4402,"UNIQUEID":"17932603","NAME":"SOUTHWEST BAPTIST UNIVERSITY - SPRINGFIELD","ADDRESS":"4431 S FREMONT AVE","CITY":"SPRINGFIELD","STATE":"MO","ZIP":"65804","ZIP4":"NOT AVAILABLE","TELEPHONE":"(417) 820-2069","TYPE":"2","STATUS":"A","POPULATION":-999,"COUNTY":"GREENE","COUNTYFIPS":"29077","COUNTRY":"USA","NAICS_CODE":"611310","NAICS_DESC":"COLLEGES, UNIVERSITIES, AND PROFESSIONAL SCHOOLS","SOURCE":"https://www.sbuniv.edu/about/campus-locations/","SOURCEDATE":"2019-01-30T00:00:00.000Z","VAL_METHOD":"IMAGERY/OTHER","VAL_DATE":"2019-01-30T00:00:00.000Z","WEBSITE":"https://www.sbuniv.edu","TOT_ENROLL":-999,"TOT_EMP":-999,"SHELTERID":"NOT AVAILABLE","SHAPE_Leng":733.2493093401229,"SHAPE_Area":31352.7530059,"ORIG_FID":56}},
{"type":"Feature","geometry":{"type":"Point","coordinates":[-10006206.189115034,4540752.093013502]},"properties":{"OBJECTID":4417,"UNIQUEID":"17955706","NAME":"SOUTHEAST MISSOURI STATE UNIVERSITY - PERRYVILLE HIGHER EDUCATION CENTER","ADDRESS":"108 SOUTH PROGRESS DR","CITY":"PERRYVILLE","STATE":"MO","ZIP":"63775","ZIP4":"NOT AVAILABLE","TELEPHONE":"NOT AVAILABLE","TYPE":"1","STATUS":"A","POPULATION":-999,"COUNTY":"PERRY","COUNTYFIPS":"29157","COUNTRY":"USA","NAICS_CODE":"611310","NAICS_DESC":"COLLEGES, UNIVERSITIES, AND PROFESSIONAL SCHOOLS","SOURCE":"http://www.semo.edu/","SOURCEDATE":"2019-02-20T00:00:00.000Z","VAL_METHOD":"IMAGERY/OTHER","VAL_DATE":"2019-02-20T00:00:00.000Z","WEBSITE":"http://www.semo.edu/","TOT_ENROLL":-999,"TOT_EMP":-999,"SHELTERID":"NOT AVAILABLE","SHAPE_Leng":524.3653035216244,"SHAPE_Area":16736.3917908,"ORIG_FID":57}},
{"type":"Feature","geometry":{"type":"Point","coordinates":[-10040229.582648922,4668564.995941177]},"properties":{"OBJECTID":4598,"UNIQUEID":"17989441","NAME":"WEBSTER UNIVERSITY - GATEWAY CAMPUS","ADDRESS":"815 OLIVE ST., SUITE 20","CITY":"ST. LOUIS","STATE":"MO","ZIP":"63101","ZIP4":"NOT AVAILABLE","TELEPHONE":"(314) 968-5966","TYPE":"2","STATUS":"A","POPULATION":-999,"COUNTY":"ST. LOUIS CITY","COUNTYFIPS":"29510","COUNTRY":"USA","NAICS_CODE":"611310","NAICS_DESC":"COLLEGES, UNIVERSITIES, AND PROFESSIONAL SCHOOLS","SOURCE":"http://www.webster.edu/dcmetro/","SOURCEDATE":"2019-02-08T00:00:00.000Z","VAL_METHOD":"IMAGERY/OTHER","VAL_DATE":"2019-02-08T00:00:00.000Z","WEBSITE":"http://www.webster.edu/gateway/","TOT_ENROLL":-999,"TOT_EMP":-999,"SHELTERID":"NOT AVAILABLE","SHAPE_Leng":338.0673352083603,"SHAPE_Area":6676.95305177,"ORIG_FID":58}},
{"type":"Feature","geometry":{"type":"Point","coordinates":[-10529220.342681805,4733872.844404663]},"properties":{"OBJECTID":4662,"UNIQUEID":"17840201","NAME":"UNIVERSITY OF MISSOURI KANSAS CITY - UNION STATION","ADDRESS":"30 W PERSHING RD, ROOM 401","CITY":"KANSAS CITY","STATE":"MO","ZIP":"64108","ZIP4":"NOT AVAILABLE","TELEPHONE":"NOT AVAILABLE","TYPE":"1","STATUS":"A","POPULATION":-999,"COUNTY":"JACKSON","COUNTYFIPS":"29095","COUNTRY":"USA","NAICS_CODE":"611310","NAICS_DESC":"COLLEGES, UNIVERSITIES, AND PROFESSIONAL SCHOOLS","SOURCE":"https://education.umkc.edu/locations/","SOURCEDATE":"2019-02-22T00:00:00.000Z","VAL_METHOD":"IMAGERY/OTHER","VAL_DATE":"2019-02-22T00:00:00.000Z","WEBSITE":"https://education.umkc.edu/locations/","TOT_ENROLL":-999,"TOT_EMP":-999,"SHELTERID":"NOT AVAILABLE","SHAPE_Leng":955.6008358589229,"SHAPE_Area":46608.4217341,"ORIG_FID":59}},
{"type":"Feature","geometry":{"type":"Point","coordinates":[-10531231.415448077,4745675.835627621]},"properties":{"OBJECTID":4687,"UNIQUEID":"17774601","NAME":"KANSAS CITY ART INSTITUTE - NORTH CAMPUS","ADDRESS":"1801 N.W. PLATTE RD, SUITE 275","CITY":"KANSAS CITY","STATE":"MO","ZIP":"64150","ZIP4":"NOT AVAILABLE","TELEPHONE":"(816) 802-3333","TYPE":"2","STATUS":"A","POPULATION":-999,"COUNTY":"PLATTE","COUNTYFIPS":"29165","COUNTRY":"USA","NAICS_CODE":"611310","NAICS_DESC":"COLLEGES, UNIVERSITIES, AND PROFESSIONAL SCHOOLS","SOURCE":"http://info.kcai.edu/continuing-education/directions/maps","SOURCEDATE":"2019-02-22T00:00:00.000Z","VAL_METHOD":"IMAGERY/OTHER","VAL_DATE":"2019-02-22T00:00:00.000Z","WEBSITE":"http://info.kcai.edu/continuing-education/directions/maps","TOT_ENROLL":-999,"TOT_EMP":-999,"SHELTERID":"NOT AVAILABLE","SHAPE_Leng":769.1985015978572,"SHAPE_Area":35187.9541154,"ORIG_FID":60}},
{"type":"Feature","geometry":{"type":"Point","coordinates":[-10538237.745567927,4757801.230067354]},"properties":{"OBJECTID":4690,"UNIQUEID":"21920408","NAME":"NATIONAL AMERICAN UNIVERSITY - ZONA ROSA CAMPUS","ADDRESS":"7490 NW 87TH ST","CITY":"KANSAS CITY","STATE":"MO","ZIP":"64153","ZIP4":"NOT AVAILABLE","TELEPHONE":"(816) 412-5500","TYPE":"3","STATUS":"A","POPULATION":-999,"COUNTY":"PLATTE","COUNTYFIPS":"29165","COUNTRY":"USA","NAICS_CODE":"611310","NAICS_DESC":"COLLEGES, UNIVERSITIES, AND PROFESSIONAL SCHOOLS","SOURCE":"http://www.national.edu/locations/campuses/zona-rosa-kansas-city/","SOURCEDATE":"2019-02-22T00:00:00.000Z","VAL_METHOD":"IMAGERY/OTHER","VAL_DATE":"2019-02-22T00:00:00.000Z","WEBSITE":"http://www.national.edu","TOT_ENROLL":-999,"TOT_EMP":-999,"SHELTERID":"NOT AVAILABLE","SHAPE_Leng":103.11841886781396,"SHAPE_Area":569.9591489939476,"ORIG_FID":61}},
{"type":"Feature","geometry":{"type":"Point","coordinates":[-10015384.570720294,4378861.458855526]},"properties":{"OBJECTID":5438,"UNIQUEID":"17955702","NAME":"SOUTHEAST MISSOURI STATE UNIVERSITY - MALDEN CAMPUS","ADDRESS":"700 NORTH DOUGLASS","CITY":"MALDEN","STATE":"MO","ZIP":"63863","ZIP4":"NOT AVAILABLE","TELEPHONE":"NOT AVAILABLE","TYPE":"1","STATUS":"A","POPULATION":-999,"COUNTY":"DUNKLIN","COUNTYFIPS":"29069","COUNTRY":"USA","NAICS_CODE":"611310","NAICS_DESC":"COLLEGES, UNIVERSITIES, AND PROFESSIONAL SCHOOLS","SOURCE":"http://www.semo.edu/","SOURCEDATE":"2018-03-28T00:00:00.000Z","VAL_METHOD":"IMAGERY/OTHER","VAL_DATE":"2018-03-28T00:00:00.000Z","WEBSITE":"http://www.semo.edu/","TOT_ENROLL":-999,"TOT_EMP":-999,"SHELTERID":"NOT AVAILABLE","SHAPE_Leng":891.8058024244148,"SHAPE_Area":49878.885229,"ORIG_FID":62}},
{"type":"Feature","geometry":{"type":"Point","coordinates":[-10023476.819856685,4333344.61110103]},"properties":{"OBJECTID":5477,"UNIQUEID":"17955701","NAME":"SOUTHEAST MISSOURI STATE UNIVERSITY - KENNETT CAMPUS","ADDRESS":"1230 FIRST STREET","CITY":"KENNETT","STATE":"MO","ZIP":"63857","ZIP4":"NOT AVAILABLE","TELEPHONE":"NOT AVAILABLE","TYPE":"1","STATUS":"A","POPULATION":-999,"COUNTY":"DUNKLIN","COUNTYFIPS":"29069","COUNTRY":"USA","NAICS_CODE":"611310","NAICS_DESC":"COLLEGES, UNIVERSITIES, AND PROFESSIONAL SCHOOLS","SOURCE":"http://www.semo.edu/","SOURCEDATE":"2018-03-28T00:00:00.000Z","VAL_METHOD":"IMAGERY/OTHER","VAL_DATE":"2018-03-28T00:00:00.000Z","WEBSITE":"http://www.semo.edu/","TOT_ENROLL":-999,"TOT_EMP":-999,"SHELTERID":"NOT AVAILABLE","SHAPE_Leng":615.5946928800806,"SHAPE_Area":19478.352941,"ORIG_FID":63}},
{"type":"Feature","geometry":{"type":"Point","coordinates":[-9975606.317953298,4428255.419204402]},"properties":{"OBJECTID":5478,"UNIQUEID":"17955703","NAME":"SOUTHEAST MISSOURI STATE UNIVERSITY - SIKESTON CAMPUS","ADDRESS":"2401 N MAIN","CITY":"SIKESTON","STATE":"MO","ZIP":"63801","ZIP4":"NOT AVAILABLE","TELEPHONE":"NOT AVAILABLE","TYPE":"1","STATUS":"A","POPULATION":-999,"COUNTY":"SCOTT","COUNTYFIPS":"29201","COUNTRY":"USA","NAICS_CODE":"611310","NAICS_DESC":"COLLEGES, UNIVERSITIES, AND PROFESSIONAL SCHOOLS","SOURCE":"http://www.semo.edu/","SOURCEDATE":"2018-03-28T00:00:00.000Z","VAL_METHOD":"IMAGERY/OTHER","VAL_DATE":"2018-03-28T00:00:00.000Z","WEBSITE":"http://www.semo.edu/","TOT_ENROLL":-999,"TOT_EMP":-999,"SHELTERID":"NOT AVAILABLE","SHAPE_Leng":1041.93301171,"SHAPE_Area":63015.0606997,"ORIG_FID":64}},
{"type":"Feature","geometry":{"type":"Point","coordinates":[-9965508.2846606,4480536.3407430705]},"properties":{"OBJECTID":5479,"UNIQUEID":"17955704","NAME":"SOUTHEAST MISSOURI STATE UNIVERSITY - RIVER CAMPUS","ADDRESS":"518 S FOUNTAIN ST","CITY":"CAPE GIRARDEAU","STATE":"MO","ZIP":"63707","ZIP4":"NOT AVAILABLE","TELEPHONE":"NOT AVAILABLE","TYPE":"1","STATUS":"A","POPULATION":-999,"COUNTY":"CAPE GIRARDEAU","COUNTYFIPS":"29031","COUNTRY":"USA","NAICS_CODE":"611310","NAICS_DESC":"COLLEGES, UNIVERSITIES, AND PROFESSIONAL SCHOOLS","SOURCE":"http://www.semo.edu/","SOURCEDATE":"2018-03-28T00:00:00.000Z","VAL_METHOD":"IMAGERY/OTHER","VAL_DATE":"2018-03-28T00:00:00.000Z","WEBSITE":"http://www.semo.edu/","TOT_ENROLL":-999,"TOT_EMP":-999,"SHELTERID":"NOT AVAILABLE","SHAPE_Leng":1638.44224772,"SHAPE_Area":144138.042611,"ORIG_FID":65}},
{"type":"Feature","geometry":{"type":"Point","coordinates":[-10051882.018403206,4672837.564271276]},"properties":{"OBJECTID":5480,"UNIQUEID":"17986701","NAME":"WASHINGTON UNIVERSITY IN ST LOUIS - NORTH CAMPUS","ADDRESS":"700 ROSEDALE AVE.","CITY":"ST. LOUIS","STATE":"MO","ZIP":"63112","ZIP4":"NOT AVAILABLE","TELEPHONE":"NOT AVAILABLE","TYPE":"2","STATUS":"A","POPULATION":-999,"COUNTY":"ST. LOUIS CITY","COUNTYFIPS":"29510","COUNTRY":"USA","NAICS_CODE":"611310","NAICS_DESC":"COLLEGES, UNIVERSITIES, AND PROFESSIONAL SCHOOLS","SOURCE":"http://wustl.edu/community/visitors/tour/","SOURCEDATE":"2018-03-28T00:00:00.000Z","VAL_METHOD":"IMAGERY/OTHER","VAL_DATE":"2018-03-28T00:00:00.000Z","WEBSITE":"http://wustl.edu/community/visitors/tour/","TOT_ENROLL":-999,"TOT_EMP":-999,"SHELTERID":"NOT AVAILABLE","SHAPE_Leng":1722.02851238,"SHAPE_Area":137157.922802,"ORIG_FID":66}},
{"type":"Feature","geometry":{"type":"Point","coordinates":[-10055477.666792555,4671669.882439775]},"properties":{"OBJECTID":5481,"UNIQUEID":"17986702","NAME":"WASHINGTON UNIVERSITY IN ST LOUIS - WEST CAMPUS","ADDRESS":"7425 FORSYTH BLVD.","CITY":"ST. LOUIS","STATE":"MO","ZIP":"63105","ZIP4":"NOT AVAILABLE","TELEPHONE":"NOT AVAILABLE","TYPE":"2","STATUS":"A","POPULATION":-999,"COUNTY":"ST. LOUIS","COUNTYFIPS":"29189","COUNTRY":"USA","NAICS_CODE":"611310","NAICS_DESC":"COLLEGES, UNIVERSITIES, AND PROFESSIONAL SCHOOLS","SOURCE":"http://wustl.edu/community/visitors/directions.html","SOURCEDATE":"2018-03-28T00:00:00.000Z","VAL_METHOD":"IMAGERY/OTHER","VAL_DATE":"2018-03-28T00:00:00.000Z","WEBSITE":"http://wustl.edu/community/visitors/directions.html","TOT_ENROLL":-999,"TOT_EMP":-999,"SHELTERID":"NOT AVAILABLE","SHAPE_Leng":1131.95323792,"SHAPE_Area":47350.1000264,"ORIG_FID":67}},
{"type":"Feature","geometry":{"type":"Point","coordinates":[-10528990.713827984,4712882.784072109]},"properties":{"OBJECTID":5482,"UNIQUEID":"17989438","NAME":"WEBSTER UNIVERSITY - KANSAS CITY CAMPUS","ADDRESS":"10450 HOLMES, SUITE 100 (I-435 & HOLMES)","CITY":"KANSAS CITY","STATE":"MO","ZIP":"64131","ZIP4":"NOT AVAILABLE","TELEPHONE":"(816) 444-1000","TYPE":"2","STATUS":"A","POPULATION":-999,"COUNTY":"JACKSON","COUNTYFIPS":"29095","COUNTRY":"USA","NAICS_CODE":"611310","NAICS_DESC":"COLLEGES, UNIVERSITIES, AND PROFESSIONAL SCHOOLS","SOURCE":"http://www.webster.edu/louisville/","SOURCEDATE":"2018-03-28T00:00:00.000Z","VAL_METHOD":"IMAGERY/OTHER","VAL_DATE":"2018-03-28T00:00:00.000Z","WEBSITE":"http://www.webster.edu/kc/","TOT_ENROLL":-999,"TOT_EMP":-999,"SHELTERID":"NOT AVAILABLE","SHAPE_Leng":355.88848303120756,"SHAPE_Area":7806.93751286,"ORIG_FID":68}},
{"type":"Feature","geometry":{"type":"Point","coordinates":[-10217606.214564536,4571441.097550034]},"properties":{"OBJECTID":5483,"UNIQUEID":"17989440","NAME":"WEBSTER UNIVERSITY - ROLLA CAMPUS","ADDRESS":"1103 KINGSHIGHWAY","CITY":"ROLLA","STATE":"MO","ZIP":"65401","ZIP4":"NOT AVAILABLE","TELEPHONE":"(573) 368-4569","TYPE":"2","STATUS":"A","POPULATION":-999,"COUNTY":"PHELPS","COUNTYFIPS":"29161","COUNTRY":"USA","NAICS_CODE":"611310","NAICS_DESC":"COLLEGES, UNIVERSITIES, AND PROFESSIONAL SCHOOLS","SOURCE":"http://www.webster.edu/locations/","SOURCEDATE":"2018-03-28T00:00:00.000Z","VAL_METHOD":"IMAGERY/OTHER","VAL_DATE":"2018-03-28T00:00:00.000Z","WEBSITE":"http://www.webster.edu/rolla/","TOT_ENROLL":-999,"TOT_EMP":-999,"SHELTERID":"NOT AVAILABLE","SHAPE_Leng":640.339669908755,"SHAPE_Area":24337.8002635,"ORIG_FID":69}},
{"type":"Feature","geometry":{"type":"Point","coordinates":[-10067551.37713265,4678676.909249994]},"properties":{"OBJECTID":5484,"UNIQUEID":"17989445","NAME":"WEBSTER UNIVERSITY - WESTPORT CAMPUS","ADDRESS":"11885 LACKLAND RD., STE. 600","CITY":"ST. LOUIS","STATE":"MO","ZIP":"63146","ZIP4":"NOT AVAILABLE","TELEPHONE":"(314) 698-5955","TYPE":"2","STATUS":"A","POPULATION":-999,"COUNTY":"ST. LOUIS","COUNTYFIPS":"29189","COUNTRY":"USA","NAICS_CODE":"611310","NAICS_DESC":"COLLEGES, UNIVERSITIES, AND PROFESSIONAL SCHOOLS","SOURCE":"http://www.webster.edu/locations/","SOURCEDATE":"2018-03-28T00:00:00.000Z","VAL_METHOD":"IMAGERY/OTHER","VAL_DATE":"2018-03-28T00:00:00.000Z","WEBSITE":"http://www.webster.edu/westport/","TOT_ENROLL":-999,"TOT_EMP":-999,"SHELTERID":"NOT AVAILABLE","SHAPE_Leng":976.3073730302299,"SHAPE_Area":59314.1640164,"ORIG_FID":70}},
{"type":"Feature","geometry":{"type":"Point","coordinates":[-10102504.374011215,4686039.603778464]},"properties":{"OBJECTID":5485,"UNIQUEID":"17989447","NAME":"WEBSTER UNIVERSITY - WINGHAVEN CAMPUS","ADDRESS":"2299 TECHNOLOGY DRIVE SUITE 300","CITY":"O'FALLON","STATE":"MO","ZIP":"63368","ZIP4":"NOT AVAILABLE","TELEPHONE":"(636) 561-2400","TYPE":"2","STATUS":"A","POPULATION":-999,"COUNTY":"ST. CHARLES","COUNTYFIPS":"29183","COUNTRY":"USA","NAICS_CODE":"611310","NAICS_DESC":"COLLEGES, UNIVERSITIES, AND PROFESSIONAL SCHOOLS","SOURCE":"http://www.webster.edu/locations/","SOURCEDATE":"2018-03-28T00:00:00.000Z","VAL_METHOD":"IMAGERY/OTHER","VAL_DATE":"2018-03-28T00:00:00.000Z","WEBSITE":"http://www.webster.edu/winghaven/","TOT_ENROLL":-999,"TOT_EMP":-999,"SHELTERID":"NOT AVAILABLE","SHAPE_Leng":289.56876297362317,"SHAPE_Area":5508.84156341,"ORIG_FID":71}},
{"type":"Feature","geometry":{"type":"Point","coordinates":[-10111031.832899261,4694268.402847033]},"properties":{"OBJECTID":6286,"UNIQUEID":"494685","NAME":"URSHAN COLLEGE","ADDRESS":"1151 CENTURY TEL DRIVE","CITY":"WENTZVILLE","STATE":"MO","ZIP":"63385","ZIP4":"NOT AVAILABLE","TELEPHONE":"(314) 838-8858","TYPE":"2","STATUS":"A","POPULATION":431,"COUNTY":"ST. CHARLES","COUNTYFIPS":"29183","COUNTRY":"USA","NAICS_CODE":"611310","NAICS_DESC":"COLLEGES, UNIVERSITIES, AND PROFESSIONAL SCHOOLS","SOURCE":"https://urshancollege.org/wp-content/uploads/2016/08/2016-2017-Student-Handbook-08.11.16.pdf","SOURCEDATE":"2021-05-16T00:00:00.000Z","VAL_METHOD":"IMAGERY/OTHER","VAL_DATE":"2021-05-16T00:00:00.000Z","WEBSITE":"urshancollege.org/","TOT_ENROLL":365,"TOT_EMP":66,"SHELTERID":"NOT AVAILABLE","SHAPE_Leng":2275.10750657,"SHAPE_Area":290109.730727,"ORIG_FID":72}},
{"type":"Feature","geometry":{"type":"Point","coordinates":[-10384522.616731858,4469767.34931627]},"properties":{"OBJECTID":6346,"UNIQUEID":"492801","NAME":"DRURY UNIVERSITY-COLLEGE OF CONTINUING PROFESSIONAL STUDIES","ADDRESS":"900 NORTH BENTON AVENUE","CITY":"SPRINGFIELD","STATE":"MO","ZIP":"65802","ZIP4":"NOT AVAILABLE","TELEPHONE":"(417) 873-7373","TYPE":"2","STATUS":"A","POPULATION":1192,"COUNTY":"GREENE","COUNTYFIPS":"29077","COUNTRY":"USA","NAICS_CODE":"611310","NAICS_DESC":"COLLEGES, UNIVERSITIES, AND PROFESSIONAL SCHOOLS","SOURCE":"http://www.drury.edu/admission/vtour/map","SOURCEDATE":"2018-03-22T00:00:00.000Z","VAL_METHOD":"IMAGERY/OTHER","VAL_DATE":"2018-03-22T00:00:00.000Z","WEBSITE":"www.drury.edu/ccps/","TOT_ENROLL":1020,"TOT_EMP":172,"SHELTERID":"NOT AVAILABLE","SHAPE_Leng":4591.20724051,"SHAPE_Area":602709.025827,"ORIG_FID":73}},
{"type":"Feature","geometry":{"type":"Point","coordinates":[-10524770.594625976,4698497.637081147]},"properties":{"OBJECTID":6377,"UNIQUEID":"176789","NAME":"CALVARY UNIVERSITY","ADDRESS":"15800 CALVARY ROAD","CITY":"KANSAS CITY","STATE":"MO","ZIP":"64147","ZIP4":"1341","TELEPHONE":"(816) 322-0110","TYPE":"2","STATUS":"A","POPULATION":568,"COUNTY":"CASS","COUNTYFIPS":"29037","COUNTRY":"USA","NAICS_CODE":"611310","NAICS_DESC":"COLLEGES, UNIVERSITIES, AND PROFESSIONAL SCHOOLS","SOURCE":"https://www.calvary.edu/campus-map/","SOURCEDATE":"2021-05-18T00:00:00.000Z","VAL_METHOD":"IMAGERY/OTHER","VAL_DATE":"2021-05-18T00:00:00.000Z","WEBSITE":"www.calvary.edu/","TOT_ENROLL":469,"TOT_EMP":99,"SHELTERID":"NOT AVAILABLE","SHAPE_Leng":3376.45015169,"SHAPE_Area":407272.716857,"ORIG_FID":74}}
]}