{
  "type" : "FeatureCollection",
  "features" : [{"type":"Feature","id":0,"geometry":{"type":"Point","coordinates":[-91.677658081054688,40.495037078857422]},"properties":{"FID":0,"citiesx020":16582,"feature":"Populated Place","name":"Revere","pop_range":"0 - 9,999","pop_2000":121,"fips55":"61292","county":"Clark County","fips":"29045","state":"MO","stfips":"29","display":"0"}},{"type":"Feature","id":1,"geometry":{"type":"Point","coordinates":[-92.527969360351563,40.520858764648438]},"properties":{"FID":1,"citiesx020":16660,"feature":"County Seat","name":"Lancaster","pop_range":"0 - 9,999","pop_2000":737,"fips55":"40610","county":"Schuyler County","fips":"29197","state":"MO","stfips":"29","display":"0"}},{"type":"Feature","id":2,"geometry":{"type":"Point","coordinates":[-93.523834228515625,40.578899383544922]},"properties":{"FID":2,"citiesx020":16671,"feature":"Populated Place","name":"South Lineville","pop_range":"0 - 9,999","pop_2000":37,"fips55":"68942","county":"Mercer County","fips":"29129","state":"MO","stfips":"29","display":"0"}},{"type":"Feature","id":3,"geometry":{"type":"Point","coordinates":[-92.576301574707031,40.517528533935547]},"properties":{"FID":3,"citiesx020":16675,"feature":"Populated Place","name":"Glenwood","pop_range":"0 - 9,999","pop_2000":203,"fips55":"27514","county":"Schuyler County","fips":"29197","state":"MO","stfips":"29","display":"0"}},{"type":"Feature","id":4,"geometry":{"type":"Point","coordinates":[-91.975738525390625,40.467815399169922]},"properties":{"FID":4,"citiesx020":16687,"feature":"Populated Place","name":"Granger","pop_range":"0 - 9,999","pop_2000":44,"fips55":"28360","county":"Scotland County","fips":"29199","state":"MO","stfips":"29","display":"0"}},{"type":"Feature","id":5,"geometry":{"type":"Point","coordinates":[-91.8818359375,40.453098297119141]},"properties":{"FID":5,"citiesx020":16703,"feature":"Populated Place","name":"Luray","pop_range":"0 - 9,999","pop_2000":102,"fips55":"44516","county":"Clark County","fips":"29045","state":"MO","stfips":"29","display":"0"}},{"type":"Feature","id":6,"geometry":{"type":"Point","coordinates":[-92.016845703125,40.462535858154297]},"properties":{"FID":6,"citiesx020":16704,"feature":"Populated Place","name":"Arbela","pop_range":"0 - 9,999","pop_2000":40,"fips55":"01576","county":"Scotland County","fips":"29199","state":"MO","stfips":"29","display":"0"}},{"type":"Feature","id":7,"geometry":{"type":"Point","coordinates":[-93.300216674804688,40.549179077148438]},"properties":{"FID":7,"citiesx020":16708,"feature":"Populated Place","name":"Powersville","pop_range":"0 - 9,999","pop_2000":86,"fips55":"59420","county":"Putnam County","fips":"29171","state":"MO","stfips":"29","display":"0"}},{"type":"Feature","id":8,"geometry":{"type":"Point","coordinates":[-92.369354248046875,40.487529754638672]},"properties":{"FID":8,"citiesx020":16709,"feature":"Populated Place","name":"Downing","pop_range":"0 - 9,999","pop_2000":396,"fips55":"19990","county":"Schuyler County","fips":"29197","state":"MO","stfips":"29","display":"0"}},{"type":"Feature","id":9,"geometry":{"type":"Point","coordinates":[-92.171295166015625,40.457813262939453]},"properties":{"FID":9,"citiesx020":16754,"feature":"County Seat","name":"Memphis","pop_range":"0 - 9,999","pop_2000":2061,"fips55":"47270","county":"Scotland County","fips":"29199","state":"MO","stfips":"29","display":"0"}},{"type":"Feature","id":10,"geometry":{"type":"Point","coordinates":[-92.7001953125,40.491416931152344]},"properties":{"FID":10,"citiesx020":16760,"feature":"Populated Place","name":"Livonia","pop_range":"0 - 9,999","pop_2000":114,"fips55":"43454","county":"Putnam County","fips":"29171","state":"MO","stfips":"29","display":"0"}},{"type":"Feature","id":11,"geometry":{"type":"Point","coordinates":[-91.7196044921875,40.420322418212891]},"properties":{"FID":11,"citiesx020":16761,"feature":"County Seat","name":"Kahoka","pop_range":"0 - 9,999","pop_2000":2241,"fips55":"37790","county":"Clark County","fips":"29045","state":"MO","stfips":"29","display":"0"}},{"type":"Feature","id":12,"geometry":{"type":"Point","coordinates":[-91.583221435546875,40.394481658935547]},"properties":{"FID":12,"citiesx020":16797,"feature":"Populated Place","name":"Wayland","pop_range":"0 - 9,999","pop_2000":425,"fips55":"77920","county":"Clark County","fips":"29045","state":"MO","stfips":"29","display":"0"}},{"type":"Feature","id":13,"geometry":{"type":"Point","coordinates":[-93.532157897949219,40.511398315429688]},"properties":{"FID":13,"citiesx020":16843,"feature":"Populated Place","name":"Mercer","pop_range":"0 - 9,999","pop_2000":342,"fips55":"47486","county":"Mercer County","fips":"29129","state":"MO","stfips":"29","display":"0"}},{"type":"Feature","id":14,"geometry":{"type":"Point","coordinates":[-93.003265380859375,40.476955413818359]},"properties":{"FID":14,"citiesx020":16846,"feature":"County Seat","name":"Unionville","pop_range":"0 - 9,999","pop_2000":2041,"fips55":"75166","county":"Putnam County","fips":"29171","state":"MO","stfips":"29","display":"0"}},{"type":"Feature","id":15,"geometry":{"type":"Point","coordinates":[-91.455429077148438,40.359485626220703]},"properties":{"FID":15,"citiesx020":16857,"feature":"Populated Place","name":"Alexandria","pop_range":"0 - 9,999","pop_2000":166,"fips55":"00604","county":"Clark County","fips":"29045","state":"MO","stfips":"29","display":"0"}},{"type":"Feature","id":16,"geometry":{"type":"Point","coordinates":[-94.391349792480469,40.549713134765625]},"properties":{"FID":16,"citiesx020":16859,"feature":"Populated Place","name":"Irena","pop_range":"0 - 9,999","pop_2000":33,"fips55":"35324","county":"Worth County","fips":"29227","state":"MO","stfips":"29","display":"0"}},{"type":"Feature","id":17,"geometry":{"type":"Point","coordinates":[-91.927116394042969,40.389759063720703]},"properties":{"FID":17,"citiesx020":16877,"feature":"Populated Place","name":"Wyaconda","pop_range":"0 - 9,999","pop_2000":310,"fips55":"81142","county":"Clark County","fips":"29045","state":"MO","stfips":"29","display":"0"}},{"type":"Feature","id":18,"geometry":{"type":"Point","coordinates":[-94.819419860839844,40.550819396972656]},"properties":{"FID":18,"citiesx020":16911,"feature":"Populated Place","name":"Hopkins","pop_range":"0 - 9,999","pop_2000":579,"fips55":"33004","county":"Nodaway County","fips":"29147","state":"MO","stfips":"29","display":"0"}},{"type":"Feature","id":19,"geometry":{"type":"Point","coordinates":[-93.292152404785156,40.463901519775391]},"properties":{"FID":19,"citiesx020":16918,"feature":"Populated Place","name":"Lucerne","pop_range":"0 - 9,999","pop_2000":92,"fips55":"44372","county":"Putnam County","fips":"29171","state":"MO","stfips":"29","display":"0"}},{"type":"Feature","id":20,"geometry":{"type":"Point","coordinates":[-92.56768798828125,40.409198760986328]},"properties":{"FID":20,"citiesx020":16928,"feature":"Populated Place","name":"Queen City","pop_range":"0 - 9,999","pop_2000":638,"fips55":"60356","county":"Schuyler County","fips":"29197","state":"MO","stfips":"29","display":"0"}},{"type":"Feature","id":21,"geometry":{"type":"Point","coordinates":[-92.688804626464844,40.408355712890625]},"properties":{"FID":21,"citiesx020":16947,"feature":"Populated Place","name":"Worthington","pop_range":"0 - 9,999","pop_2000":89,"fips55":"81106","county":"Putnam County","fips":"29171","state":"MO","stfips":"29","display":"0"}},{"type":"Feature","id":22,"geometry":{"type":"Point","coordinates":[-92.024497985839844,40.360336303710938]},"properties":{"FID":22,"citiesx020":16949,"feature":"Populated Place","name":"South Gorin","pop_range":"Undetermined","pop_2000":-99999,"fips55":"68870","county":"Scotland County","fips":"29199","state":"MO","stfips":"29","display":"1"}},{"type":"Feature","id":23,"geometry":{"type":"Point","coordinates":[-94.6121826171875,40.518047332763672]},"properties":{"FID":23,"citiesx020":16953,"feature":"Populated Place","name":"Sheridan","pop_range":"0 - 9,999","pop_2000":185,"fips55":"67358","county":"Worth County","fips":"29227","state":"MO","stfips":"29","display":"0"}},{"type":"Feature","id":24,"geometry":{"type":"Point","coordinates":[-93.926895141601563,40.47528076171875]},"properties":{"FID":24,"citiesx020":16969,"feature":"Populated Place","name":"Blythedale","pop_range":"0 - 9,999","pop_2000":233,"fips55":"06742","county":"Harrison County","fips":"29081","state":"MO","stfips":"29","display":"0"}},{"type":"Feature","id":25,"geometry":{"type":"Point","coordinates":[-94.288566589355469,40.485553741455078]},"properties":{"FID":25,"citiesx020":16986,"feature":"Populated Place","name":"Allendale","pop_range":"0 - 9,999","pop_2000":54,"fips55":"00712","county":"Worth County","fips":"29227","state":"MO","stfips":"29","display":"0"}},{"type":"Feature","id":26,"geometry":{"type":"Point","coordinates":[-93.987167358398438,40.469169616699219]},"properties":{"FID":26,"citiesx020":16987,"feature":"Populated Place","name":"Eagleville","pop_range":"0 - 9,999","pop_2000":321,"fips55":"20674","county":"Harrison County","fips":"29081","state":"MO","stfips":"29","display":"0"}},{"type":"Feature","id":27,"geometry":{"type":"Point","coordinates":[-95.31915283203125,40.534717559814453]},"properties":{"FID":27,"citiesx020":16988,"feature":"Populated Place","name":"Westboro","pop_range":"0 - 9,999","pop_2000":163,"fips55":"78622","county":"Atchison County","fips":"29005","state":"MO","stfips":"29","display":"0"}},{"type":"Feature","id":28,"geometry":{"type":"Point","coordinates":[-94.411064147949219,40.487491607666016]},"properties":{"FID":28,"citiesx020":17000,"feature":"County Seat","name":"Grant City","pop_range":"0 - 9,999","pop_2000":926,"fips55":"28594","county":"Worth County","fips":"29227","state":"MO","stfips":"29","display":"0"}},{"type":"Feature","id":29,"geometry":{"type":"Point","coordinates":[-95.115531921386719,40.518321990966797]},"properties":{"FID":29,"citiesx020":17010,"feature":"Populated Place","name":"Elmo","pop_range":"0 - 9,999","pop_2000":166,"fips55":"22024","county":"Nodaway County","fips":"29147","state":"MO","stfips":"29","display":"0"}},{"type":"Feature","id":30,"geometry":{"type":"Point","coordinates":[-95.032188415527344,40.509712219238281]},"properties":{"FID":30,"citiesx020":17017,"feature":"Populated Place","name":"Clearmont","pop_range":"0 - 9,999","pop_2000":191,"fips55":"14662","county":"Nodaway County","fips":"29147","state":"MO","stfips":"29","display":"0"}},{"type":"Feature","id":31,"geometry":{"type":"Point","coordinates":[-93.775222778320313,40.437503814697266]},"properties":{"FID":31,"citiesx020":17033,"feature":"Populated Place","name":"Cainsville","pop_range":"0 - 9,999","pop_2000":370,"fips55":"10342","county":"Harrison County","fips":"29081","state":"MO","stfips":"29","display":"0"}},{"type":"Feature","id":32,"geometry":{"type":"Point","coordinates":[-92.088233947753906,40.313648223876953]},"properties":{"FID":32,"citiesx020":17065,"feature":"Populated Place","name":"Rutledge","pop_range":"0 - 9,999","pop_2000":103,"fips55":"63776","county":"Scotland County","fips":"29199","state":"MO","stfips":"29","display":"0"}},{"type":"Feature","id":33,"geometry":{"type":"Point","coordinates":[-92.569084167480469,40.346969604492188]},"properties":{"FID":33,"citiesx020":17070,"feature":"Populated Place","name":"Greentop","pop_range":"0 - 9,999","pop_2000":427,"fips55":"29422","county":"Schuyler County","fips":"29197","state":"MO","stfips":"29","display":"0"}},{"type":"Feature","id":34,"geometry":{"type":"Point","coordinates":[-93.580497741699219,40.400836944580078]},"properties":{"FID":34,"citiesx020":17093,"feature":"County Seat","name":"Princeton","pop_range":"0 - 9,999","pop_2000":1047,"fips55":"59942","county":"Mercer County","fips":"29129","state":"MO","stfips":"29","display":"0"}},{"type":"Feature","id":35,"geometry":{"type":"Point","coordinates":[-93.334930419921875,40.376399993896484]},"properties":{"FID":35,"citiesx020":17111,"feature":"Populated Place","name":"Newtown","pop_range":"0 - 9,999","pop_2000":209,"fips55":"52328","county":"Sullivan County","fips":"29211","state":"MO","stfips":"29","display":"0"}},{"type":"Feature","id":36,"geometry":{"type":"Point","coordinates":[-93.084922790527344,40.359184265136719]},"properties":{"FID":36,"citiesx020":17116,"feature":"Populated Place","name":"Pollock","pop_range":"0 - 9,999","pop_2000":131,"fips55":"58898","county":"Sullivan County","fips":"29211","state":"MO","stfips":"29","display":"0"}},{"type":"Feature","id":37,"geometry":{"type":"Point","coordinates":[-94.842193603515625,40.450817108154297]},"properties":{"FID":37,"citiesx020":17126,"feature":"Populated Place","name":"Pickering","pop_range":"0 - 9,999","pop_2000":154,"fips55":"57404","county":"Nodaway County","fips":"29147","state":"MO","stfips":"29","display":"0"}},{"type":"Feature","id":38,"geometry":{"type":"Point","coordinates":[-94.623306274414063,40.439987182617188]},"properties":{"FID":38,"citiesx020":17127,"feature":"Populated Place","name":"Parnell","pop_range":"0 - 9,999","pop_2000":197,"fips55":"56360","county":"Nodaway County","fips":"29147","state":"MO","stfips":"29","display":"0"}},{"type":"Feature","id":39,"geometry":{"type":"Point","coordinates":[-95.62054443359375,40.476943969726563]},"properties":{"FID":39,"citiesx020":17142,"feature":"Populated Place","name":"Watson","pop_range":"0 - 9,999","pop_2000":121,"fips55":"77848","county":"Atchison County","fips":"29005","state":"MO","stfips":"29","display":"0"}},{"type":"Feature","id":40,"geometry":{"type":"Point","coordinates":[-95.066078186035156,40.445552825927734]},"properties":{"FID":40,"citiesx020":17155,"feature":"Populated Place","name":"Burlington Junction","pop_range":"0 - 9,999","pop_2000":632,"fips55":"09838","county":"Nodaway County","fips":"29147","state":"MO","stfips":"29","display":"0"}},{"type":"Feature","id":41,"geometry":{"type":"Point","coordinates":[-93.936897277832031,40.378063201904297]},"properties":{"FID":41,"citiesx020":17170,"feature":"Populated Place","name":"Ridgeway","pop_range":"0 - 9,999","pop_2000":530,"fips55":"61904","county":"Harrison County","fips":"29081","state":"MO","stfips":"29","display":"0"}},{"type":"Feature","id":42,"geometry":{"type":"Point","coordinates":[-94.444129943847656,40.404991149902344]},"properties":{"FID":42,"citiesx020":17172,"feature":"Populated Place","name":"Worth","pop_range":"0 - 9,999","pop_2000":94,"fips55":"81070","county":"Worth County","fips":"29227","state":"MO","stfips":"29","display":"0"}},{"type":"Feature","id":43,"geometry":{"type":"Point","coordinates":[-94.322738647460938,40.397212982177734]},"properties":{"FID":43,"citiesx020":17176,"feature":"Populated Place","name":"Denver","pop_range":"0 - 9,999","pop_2000":40,"fips55":"19162","county":"Worth County","fips":"29227","state":"MO","stfips":"29","display":"0"}},{"type":"Feature","id":44,"geometry":{"type":"Point","coordinates":[-95.377761840820313,40.440280914306641]},"properties":{"FID":44,"citiesx020":17189,"feature":"Populated Place","name":"Tarkio","pop_range":"0 - 9,999","pop_2000":1935,"fips55":"72340","county":"Atchison County","fips":"29005","state":"MO","stfips":"29","display":"0"}},{"type":"Feature","id":45,"geometry":{"type":"Point","coordinates":[-92.205741882324219,40.244209289550781]},"properties":{"FID":45,"citiesx020":17227,"feature":"Populated Place","name":"Baring","pop_range":"0 - 9,999","pop_2000":159,"fips55":"03322","county":"Knox County","fips":"29103","state":"MO","stfips":"29","display":"0"}},{"type":"Feature","id":46,"geometry":{"type":"Point","coordinates":[-93.350212097167969,40.305843353271484]},"properties":{"FID":46,"citiesx020":17269,"feature":"Populated Place","name":"Harris","pop_range":"0 - 9,999","pop_2000":105,"fips55":"30466","county":"Sullivan County","fips":"29211","state":"MO","stfips":"29","display":"0"}},{"type":"Feature","id":47,"geometry":{"type":"Point","coordinates":[-93.794670104980469,40.329727172851563]},"properties":{"FID":47,"citiesx020":17276,"feature":"Populated Place","name":"Mount Moriah","pop_range":"0 - 9,999","pop_2000":143,"fips55":"50528","county":"Harrison County","fips":"29081","state":"MO","stfips":"29","display":"0"}},{"type":"Feature","id":48,"geometry":{"type":"Point","coordinates":[-95.516929626464844,40.411109924316406]},"properties":{"FID":48,"citiesx020":17281,"feature":"County Seat","name":"Rock Port","pop_range":"0 - 9,999","pop_2000":1395,"fips55":"62696","county":"Atchison County","fips":"29005","state":"MO","stfips":"29","display":"0"}},{"type":"Feature","id":49,"geometry":{"type":"Point","coordinates":[-93.593734741210938,40.309261322021484]},"properties":{"FID":49,"citiesx020":17289,"feature":"Populated Place","name":"Mill Grove","pop_range":"Undetermined","pop_2000":-99999,"fips55":"48368","county":"Mercer County","fips":"29129","state":"MO","stfips":"29","display":"0"}},{"type":"Feature","id":50,"geometry":{"type":"Point","coordinates":[-92.953262329101563,40.268630981445313]},"properties":{"FID":50,"citiesx020":17292,"feature":"Populated Place","name":"Green City","pop_range":"0 - 9,999","pop_2000":688,"fips55":"29134","county":"Sullivan County","fips":"29211","state":"MO","stfips":"29","display":"0"}},{"type":"Feature","id":51,"geometry":{"type":"Point","coordinates":[-92.878547668457031,40.261562347412109]},"properties":{"FID":51,"citiesx020":17296,"feature":"Populated Place","name":"Greencastle","pop_range":"Undetermined","pop_2000":-99999,"fips55":"29116","county":"Sullivan County","fips":"29211","state":"MO","stfips":"29","display":"1"}},{"type":"Feature","id":52,"geometry":{"type":"Point","coordinates":[-95.598388671875,40.402675628662109]},"properties":{"FID":52,"citiesx020":17301,"feature":"Populated Place","name":"Phelps City","pop_range":"Undetermined","pop_2000":-99999,"fips55":"57332","county":"Atchison County","fips":"29005","state":"MO","stfips":"29","display":"1"}},{"type":"Feature","id":53,"geometry":{"type":"Point","coordinates":[-95.076644897460938,40.373321533203125]},"properties":{"FID":53,"citiesx020":17312,"feature":"Populated Place","name":"Quitman","pop_range":"0 - 9,999","pop_2000":46,"fips55":"60410","county":"Nodaway County","fips":"29147","state":"MO","stfips":"29","display":"0"}},{"type":"Feature","id":54,"geometry":{"type":"Point","coordinates":[-94.673851013183594,40.352210998535156]},"properties":{"FID":54,"citiesx020":17318,"feature":"Populated Place","name":"Ravenwood","pop_range":"0 - 9,999","pop_2000":448,"fips55":"60716","county":"Nodaway County","fips":"29147","state":"MO","stfips":"29","display":"0"}},{"type":"Feature","id":55,"geometry":{"type":"Point","coordinates":[-92.708526611328125,40.231967926025391]},"properties":{"FID":55,"citiesx020":17333,"feature":"Populated Place","name":"Novinger","pop_range":"0 - 9,999","pop_2000":534,"fips55":"53534","county":"Adair County","fips":"29001","state":"MO","stfips":"29","display":"0"}},{"type":"Feature","id":56,"geometry":{"type":"Point","coordinates":[-94.420234680175781,40.331661224365234]},"properties":{"FID":56,"citiesx020":17340,"feature":"Populated Place","name":"Gentry","pop_range":"0 - 9,999","pop_2000":101,"fips55":"26776","county":"Gentry County","fips":"29075","state":"MO","stfips":"29","display":"0"}},{"type":"Feature","id":57,"geometry":{"type":"Point","coordinates":[-94.872474670410156,40.346103668212891]},"properties":{"FID":57,"citiesx020":17352,"feature":"County Seat","name":"Maryville","pop_range":"10,000 - 49,999","pop_2000":10581,"fips55":"46640","county":"Nodaway County","fips":"29147","state":"MO","stfips":"29","display":"0"}},{"type":"Feature","id":58,"geometry":{"type":"Point","coordinates":[-92.172683715820313,40.167537689208984]},"properties":{"FID":58,"citiesx020":17388,"feature":"County Seat","name":"Edina","pop_range":"0 - 9,999","pop_2000":1233,"fips55":"21322","county":"Knox County","fips":"29103","state":"MO","stfips":"29","display":"0"}},{"type":"Feature","id":59,"geometry":{"type":"Point","coordinates":[-91.625160217285156,40.125045776367188]},"properties":{"FID":59,"citiesx020":17392,"feature":"Populated Place","name":"Canton","pop_range":"0 - 9,999","pop_2000":2557,"fips55":"11134","county":"Lewis County","fips":"29111","state":"MO","stfips":"29","display":"0"}},{"type":"Feature","id":60,"geometry":{"type":"Point","coordinates":[-92.583251953125,40.194751739501953]},"properties":{"FID":60,"citiesx020":17393,"feature":"County Seat","name":"Kirksville","pop_range":"10,000 - 49,999","pop_2000":16988,"fips55":"39026","county":"Adair County","fips":"29001","state":"MO","stfips":"29","display":"0"}},{"type":"Feature","id":61,"geometry":{"type":"Point","coordinates":[-92.009346008300781,40.143650054931641]},"properties":{"FID":61,"citiesx020":17413,"feature":"Populated Place","name":"Knox City","pop_range":"0 - 9,999","pop_2000":223,"fips55":"39278","county":"Knox County","fips":"29103","state":"MO","stfips":"29","display":"0"}},{"type":"Feature","id":62,"geometry":{"type":"Point","coordinates":[-95.393318176269531,40.338607788085938]},"properties":{"FID":62,"citiesx020":17419,"feature":"Populated Place","name":"Fairfax","pop_range":"0 - 9,999","pop_2000":645,"fips55":"23266","county":"Atchison County","fips":"29005","state":"MO","stfips":"29","display":"0"}},{"type":"Feature","id":63,"geometry":{"type":"Point","coordinates":[-91.71209716796875,40.118370056152344]},"properties":{"FID":63,"citiesx020":17422,"feature":"County Seat","name":"Monticello","pop_range":"0 - 9,999","pop_2000":126,"fips55":"49592","county":"Lewis County","fips":"29111","state":"MO","stfips":"29","display":"0"}},{"type":"Feature","id":64,"geometry":{"type":"Point","coordinates":[-93.594390869140625,40.243900299072266]},"properties":{"FID":64,"citiesx020":17427,"feature":"Populated Place","name":"Spickard","pop_range":"0 - 9,999","pop_2000":315,"fips55":"69464","county":"Grundy County","fips":"29079","state":"MO","stfips":"29","display":"0"}},{"type":"Feature","id":65,"geometry":{"type":"Point","coordinates":[-94.028289794921875,40.268329620361328]},"properties":{"FID":65,"citiesx020":17430,"feature":"County Seat","name":"Bethany","pop_range":"0 - 9,999","pop_2000":3087,"fips55":"05068","county":"Harrison County","fips":"29081","state":"MO","stfips":"29","display":"0"}},{"type":"Feature","id":66,"geometry":{"type":"Point","coordinates":[-92.3021240234375,40.150039672851563]},"properties":{"FID":66,"citiesx020":17452,"feature":"Populated Place","name":"Hurdland","pop_range":"0 - 9,999","pop_2000":239,"fips55":"33904","county":"Knox County","fips":"29103","state":"MO","stfips":"29","display":"0"}},{"type":"Feature","id":67,"geometry":{"type":"Point","coordinates":[-93.125205993652344,40.202239990234375]},"properties":{"FID":67,"citiesx020":17458,"feature":"County Seat","name":"Milan","pop_range":"0 - 9,999","pop_2000":1958,"fips55":"48062","county":"Sullivan County","fips":"29211","state":"MO","stfips":"29","display":"0"}},{"type":"Feature","id":68,"geometry":{"type":"Point","coordinates":[-91.912666320800781,40.116981506347656]},"properties":{"FID":68,"citiesx020":17462,"feature":"Populated Place","name":"La Belle","pop_range":"0 - 9,999","pop_2000":669,"fips55":"39512","county":"Lewis County","fips":"29111","state":"MO","stfips":"29","display":"0"}},{"type":"Feature","id":69,"geometry":{"type":"Point","coordinates":[-94.196060180664063,40.263607025146484]},"properties":{"FID":69,"citiesx020":17463,"feature":"Populated Place","name":"New Hampton","pop_range":"0 - 9,999","pop_2000":349,"fips55":"51860","county":"Harrison County","fips":"29081","state":"MO","stfips":"29","display":"0"}},{"type":"Feature","id":70,"geometry":{"type":"Point","coordinates":[-92.379081726074219,40.14892578125]},"properties":{"FID":70,"citiesx020":17471,"feature":"Populated Place","name":"Brashear","pop_range":"0 - 9,999","pop_2000":280,"fips55":"08002","county":"Adair County","fips":"29001","state":"MO","stfips":"29","display":"0"}},{"type":"Feature","id":71,"geometry":{"type":"Point","coordinates":[-91.813224792480469,40.106712341308594]},"properties":{"FID":71,"citiesx020":17474,"feature":"Populated Place","name":"New Court Village","pop_range":"Undetermined","pop_2000":-99999,"fips55":"51752","county":"Lewis County","fips":"29111","state":"MO","stfips":"29","display":"0"}},{"type":"Feature","id":72,"geometry":{"type":"Point","coordinates":[-93.347152709960938,40.199455261230469]},"properties":{"FID":72,"citiesx020":17503,"feature":"Populated Place","name":"Osgood","pop_range":"0 - 9,999","pop_2000":51,"fips55":"55424","county":"Sullivan County","fips":"29211","state":"MO","stfips":"29","display":"0"}},{"type":"Feature","id":73,"geometry":{"type":"Point","coordinates":[-95.08135986328125,40.288883209228516]},"properties":{"FID":73,"citiesx020":17512,"feature":"Populated Place","name":"Skidmore","pop_range":"0 - 9,999","pop_2000":342,"fips55":"68132","county":"Nodaway County","fips":"29147","state":"MO","stfips":"29","display":"0"}},{"type":"Feature","id":74,"geometry":{"type":"Point","coordinates":[-94.668571472167969,40.269161224365234]},"properties":{"FID":74,"citiesx020":17513,"feature":"Populated Place","name":"Clyde","pop_range":"0 - 9,999","pop_2000":74,"fips55":"15130","county":"Nodaway County","fips":"29147","state":"MO","stfips":"29","display":"0"}},{"type":"Feature","id":75,"geometry":{"type":"Point","coordinates":[-94.691917419433594,40.269710540771484]},"properties":{"FID":75,"citiesx020":17516,"feature":"Populated Place","name":"Conception Junction","pop_range":"0 - 9,999","pop_2000":202,"fips55":"15922","county":"Nodaway County","fips":"29147","state":"MO","stfips":"29","display":"0"}},{"type":"Feature","id":76,"geometry":{"type":"Point","coordinates":[-94.331069946289063,40.248607635498047]},"properties":{"FID":76,"citiesx020":17518,"feature":"County Seat","name":"Albany","pop_range":"0 - 9,999","pop_2000":1937,"fips55":"00514","county":"Gentry County","fips":"29075","state":"MO","stfips":"29","display":"0"}},{"type":"Feature","id":77,"geometry":{"type":"Point","coordinates":[-91.813224792480469,40.086151123046875]},"properties":{"FID":77,"citiesx020":17521,"feature":"Populated Place","name":"Lewistown","pop_range":"0 - 9,999","pop_2000":595,"fips55":"41852","county":"Lewis County","fips":"29111","state":"MO","stfips":"29","display":"0"}},{"type":"Feature","id":78,"geometry":{"type":"Point","coordinates":[-94.827743530273438,40.258052825927734]},"properties":{"FID":78,"citiesx020":17560,"feature":"Populated Place","name":"Arkoe","pop_range":"0 - 9,999","pop_2000":58,"fips55":"01864","county":"Nodaway County","fips":"29147","state":"MO","stfips":"29","display":"0"}},{"type":"Feature","id":79,"geometry":{"type":"Point","coordinates":[-92.5460205078125,40.107254028320313]},"properties":{"FID":79,"citiesx020":17597,"feature":"Populated Place","name":"Millard","pop_range":"0 - 9,999","pop_2000":75,"fips55":"48134","county":"Adair County","fips":"29001","state":"MO","stfips":"29","display":"0"}},{"type":"Feature","id":80,"geometry":{"type":"Point","coordinates":[-92.416862487792969,40.097812652587891]},"properties":{"FID":80,"citiesx020":17599,"feature":"Populated Place","name":"Gibbs","pop_range":"0 - 9,999","pop_2000":100,"fips55":"26920","county":"Adair County","fips":"29001","state":"MO","stfips":"29","display":"0"}},{"type":"Feature","id":81,"geometry":{"type":"Point","coordinates":[-94.538299560546875,40.2177734375]},"properties":{"FID":81,"citiesx020":17621,"feature":"Populated Place","name":"Stanberry","pop_range":"0 - 9,999","pop_2000":1243,"fips55":"70270","county":"Gentry County","fips":"29075","state":"MO","stfips":"29","display":"0"}},{"type":"Feature","id":82,"geometry":{"type":"Point","coordinates":[-93.608283996582031,40.161121368408203]},"properties":{"FID":82,"citiesx020":17642,"feature":"Populated Place","name":"Tindall","pop_range":"0 - 9,999","pop_2000":65,"fips55":"73348","county":"Grundy County","fips":"29079","state":"MO","stfips":"29","display":"0"}},{"type":"Feature","id":83,"geometry":{"type":"Point","coordinates":[-95.454147338867188,40.248325347900391]},"properties":{"FID":83,"citiesx020":17653,"feature":"Populated Place","name":"Corning","pop_range":"0 - 9,999","pop_2000":21,"fips55":"16462","county":"Holt County","fips":"29087","state":"MO","stfips":"29","display":"0"}},{"type":"Feature","id":84,"geometry":{"type":"Point","coordinates":[-94.396064758300781,40.198326110839844]},"properties":{"FID":84,"citiesx020":17655,"feature":"Populated Place","name":"Darlington","pop_range":"0 - 9,999","pop_2000":113,"fips55":"18316","county":"Gentry County","fips":"29075","state":"MO","stfips":"29","display":"0"}},{"type":"Feature","id":85,"geometry":{"type":"Point","coordinates":[-93.319107055664063,40.125576019287109]},"properties":{"FID":85,"citiesx020":17679,"feature":"Populated Place","name":"Humphreys","pop_range":"0 - 9,999","pop_2000":164,"fips55":"33742","county":"Sullivan County","fips":"29211","state":"MO","stfips":"29","display":"0"}},{"type":"Feature","id":86,"geometry":{"type":"Point","coordinates":[-93.386886596679688,40.128623962402344]},"properties":{"FID":86,"citiesx020":17686,"feature":"Populated Place","name":"Galt","pop_range":"0 - 9,999","pop_2000":275,"fips55":"26362","county":"Grundy County","fips":"29079","state":"MO","stfips":"29","display":"0"}},{"type":"Feature","id":87,"geometry":{"type":"Point","coordinates":[-93.73883056640625,40.143619537353516]},"properties":{"FID":87,"citiesx020":17703,"feature":"Populated Place","name":"Brimson","pop_range":"0 - 9,999","pop_2000":63,"fips55":"08470","county":"Grundy County","fips":"29079","state":"MO","stfips":"29","display":"0"}},{"type":"Feature","id":88,"geometry":{"type":"Point","coordinates":[-91.713768005371094,40.006156921386719]},"properties":{"FID":88,"citiesx020":17705,"feature":"Populated Place","name":"Ewing","pop_range":"0 - 9,999","pop_2000":464,"fips55":"23032","county":"Lewis County","fips":"29111","state":"MO","stfips":"29","display":"0"}},{"type":"Feature","id":89,"geometry":{"type":"Point","coordinates":[-93.872451782226563,40.141677856445313]},"properties":{"FID":89,"citiesx020":17730,"feature":"Populated Place","name":"Gilman City","pop_range":"0 - 9,999","pop_2000":380,"fips55":"27064","county":"Harrison County","fips":"29081","state":"MO","stfips":"29","display":"0"}},{"type":"Feature","id":90,"geometry":{"type":"Point","coordinates":[-95.036643981933594,40.200820922851563]},"properties":{"FID":90,"citiesx020":17735,"feature":"Populated Place","name":"Graham","pop_range":"0 - 9,999","pop_2000":191,"fips55":"28072","county":"Nodaway County","fips":"29147","state":"MO","stfips":"29","display":"0"}},{"type":"Feature","id":91,"geometry":{"type":"Point","coordinates":[-95.074424743652344,40.200820922851563]},"properties":{"FID":91,"citiesx020":17741,"feature":"Populated Place","name":"Maitland","pop_range":"0 - 9,999","pop_2000":342,"fips55":"45596","county":"Holt County","fips":"29087","state":"MO","stfips":"29","display":"0"}},{"type":"Feature","id":92,"geometry":{"type":"Point","coordinates":[-94.736351013183594,40.170272827148438]},"properties":{"FID":92,"citiesx020":17778,"feature":"Populated Place","name":"Guilford","pop_range":"0 - 9,999","pop_2000":87,"fips55":"29692","county":"Nodaway County","fips":"29147","state":"MO","stfips":"29","display":"0"}},{"type":"Feature","id":93,"geometry":{"type":"Point","coordinates":[-94.8238525390625,40.174430847167969]},"properties":{"FID":93,"citiesx020":17779,"feature":"Populated Place","name":"Barnard","pop_range":"0 - 9,999","pop_2000":257,"fips55":"03340","county":"Nodaway County","fips":"29147","state":"MO","stfips":"29","display":"0"}},{"type":"Feature","id":94,"geometry":{"type":"Point","coordinates":[-95.371086120605469,40.194717407226563]},"properties":{"FID":94,"citiesx020":17791,"feature":"Populated Place","name":"Craig","pop_range":"0 - 9,999","pop_2000":309,"fips55":"17056","county":"Holt County","fips":"29087","state":"MO","stfips":"29","display":"0"}},{"type":"Feature","id":95,"geometry":{"type":"Point","coordinates":[-92.208244323730469,40.012538909912109]},"properties":{"FID":95,"citiesx020":17793,"feature":"Populated Place","name":"Novelty","pop_range":"0 - 9,999","pop_2000":119,"fips55":"53516","county":"Knox County","fips":"29103","state":"MO","stfips":"29","display":"0"}},{"type":"Feature","id":96,"geometry":{"type":"Point","coordinates":[-91.972953796386719,39.99310302734375]},"properties":{"FID":96,"citiesx020":17799,"feature":"Populated Place","name":"Newark","pop_range":"0 - 9,999","pop_2000":100,"fips55":"51662","county":"Knox County","fips":"29103","state":"MO","stfips":"29","display":"0"}},{"type":"Feature","id":97,"geometry":{"type":"Point","coordinates":[-92.4915771484375,40.023365020751953]},"properties":{"FID":97,"citiesx020":17813,"feature":"Populated Place","name":"La Plata","pop_range":"0 - 9,999","pop_2000":1486,"fips55":"40682","county":"Macon County","fips":"29121","state":"MO","stfips":"29","display":"0"}},{"type":"Feature","id":98,"geometry":{"type":"Point","coordinates":[-91.603591918945313,39.954502105712891]},"properties":{"FID":98,"citiesx020":17821,"feature":"Populated Place","name":"Maywood","pop_range":"Undetermined","pop_2000":-99999,"fips55":"46982","county":"Lewis County","fips":"29111","state":"MO","stfips":"29","display":"0"}},{"type":"Feature","id":99,"geometry":{"type":"Point","coordinates":[-92.903656005859375,40.045864105224609]},"properties":{"FID":99,"citiesx020":17825,"feature":"Populated Place","name":"Winigan","pop_range":"Undetermined","pop_2000":-99999,"fips55":"80440","county":"Sullivan County","fips":"29211","state":"MO","stfips":"29","display":"0"}},{"type":"Feature","id":100,"geometry":{"type":"Point","coordinates":[-92.68157958984375,40.025588989257813]},"properties":{"FID":100,"citiesx020":17839,"feature":"Populated Place","name":"Gifford","pop_range":"0 - 9,999","pop_2000":72,"fips55":"68852","county":"Macon County","fips":"29121","state":"MO","stfips":"29","display":"0"}},{"type":"Feature","id":101,"geometry":{"type":"Point","coordinates":[-94.005226135253906,40.106674194335938]},"properties":{"FID":101,"citiesx020":17842,"feature":"Populated Place","name":"Coffey","pop_range":"0 - 9,999","pop_2000":140,"fips55":"15274","county":"Daviess County","fips":"29061","state":"MO","stfips":"29","display":"0"}},{"type":"Feature","id":102,"geometry":{"type":"Point","coordinates":[-93.616607666015625,40.078903198242188]},"properties":{"FID":102,"citiesx020":17850,"feature":"County Seat","name":"Trenton","pop_range":"0 - 9,999","pop_2000":6216,"fips55":"73816","county":"Grundy County","fips":"29079","state":"MO","stfips":"29","display":"0"}},{"type":"Feature","id":103,"geometry":{"type":"Point","coordinates":[-94.223289489746094,40.110828399658203]},"properties":{"FID":103,"citiesx020":17855,"feature":"Populated Place","name":"McFall","pop_range":"0 - 9,999","pop_2000":135,"fips55":"45020","county":"Gentry County","fips":"29075","state":"MO","stfips":"29","display":"0"}},{"type":"Feature","id":104,"geometry":{"type":"Point","coordinates":[-94.46502685546875,40.112239837646484]},"properties":{"FID":104,"citiesx020":17884,"feature":"Populated Place","name":"Ford City","pop_range":"Undetermined","pop_2000":-99999,"fips55":"24994","county":"Gentry County","fips":"29075","state":"MO","stfips":"29","display":"1"}},{"type":"Feature","id":105,"geometry":{"type":"Point","coordinates":[-93.162422180175781,40.035297393798828]},"properties":{"FID":105,"citiesx020":17886,"feature":"Populated Place","name":"Browning","pop_range":"0 - 9,999","pop_2000":317,"fips55":"08884","county":"Linn County","fips":"29115","state":"MO","stfips":"29","display":"0"}},{"type":"Feature","id":106,"geometry":{"type":"Point","coordinates":[-94.822181701660156,40.113052368164063]},"properties":{"FID":106,"citiesx020":17920,"feature":"Populated Place","name":"Bolckow","pop_range":"0 - 9,999","pop_2000":234,"fips55":"06922","county":"Andrew County","fips":"29003","state":"MO","stfips":"29","display":"0"}},{"type":"Feature","id":107,"geometry":{"type":"Point","coordinates":[-95.231643676757813,40.131107330322266]},"properties":{"FID":107,"citiesx020":17924,"feature":"Populated Place","name":"Mound City","pop_range":"0 - 9,999","pop_2000":1193,"fips55":"50312","county":"Holt County","fips":"29087","state":"MO","stfips":"29","display":"0"}},{"type":"Feature","id":108,"geometry":{"type":"Point","coordinates":[-93.446601867675781,40.02557373046875]},"properties":{"FID":108,"citiesx020":17958,"feature":"Populated Place","name":"Laredo","pop_range":"0 - 9,999","pop_2000":250,"fips55":"40736","county":"Grundy County","fips":"29079","state":"MO","stfips":"29","display":"0"}},{"type":"Feature","id":109,"geometry":{"type":"Point","coordinates":[-95.289688110351563,40.110557556152344]},"properties":{"FID":109,"citiesx020":17977,"feature":"Populated Place","name":"Bigelow","pop_range":"0 - 9,999","pop_2000":38,"fips55":"05464","county":"Holt County","fips":"29087","state":"MO","stfips":"29","display":"0"}},{"type":"Feature","id":110,"geometry":{"type":"Point","coordinates":[-92.650474548339844,39.95697021484375]},"properties":{"FID":110,"citiesx020":17997,"feature":"Populated Place","name":"Elmer","pop_range":"0 - 9,999","pop_2000":98,"fips55":"21988","county":"Macon County","fips":"29121","state":"MO","stfips":"29","display":"0"}},{"type":"Feature","id":111,"geometry":{"type":"Point","coordinates":[-94.135787963867188,40.046672821044922]},"properties":{"FID":111,"citiesx020":17999,"feature":"Populated Place","name":"Pattonsburg","pop_range":"0 - 9,999","pop_2000":261,"fips55":"56558","county":"Daviess County","fips":"29061","state":"MO","stfips":"29","display":"0"}},{"type":"Feature","id":112,"geometry":{"type":"Point","coordinates":[-94.524124145507813,40.051387786865234]},"properties":{"FID":112,"citiesx020":18037,"feature":"Populated Place","name":"King City","pop_range":"0 - 9,999","pop_2000":1012,"fips55":"38774","county":"Gentry County","fips":"29075","state":"MO","stfips":"29","display":"0"}},{"type":"Feature","id":113,"geometry":{"type":"Point","coordinates":[-94.764686584472656,40.061931610107422]},"properties":{"FID":113,"citiesx020":18043,"feature":"Populated Place","name":"Rea","pop_range":"0 - 9,999","pop_2000":56,"fips55":"60842","county":"Andrew County","fips":"29003","state":"MO","stfips":"29","display":"0"}},{"type":"Feature","id":114,"geometry":{"type":"Point","coordinates":[-95.3499755859375,40.081939697265625]},"properties":{"FID":114,"citiesx020":18058,"feature":"Populated Place","name":"Big Lake","pop_range":"0 - 9,999","pop_2000":127,"fips55":"05495","county":"Holt County","fips":"29087","state":"MO","stfips":"29","display":"0"}},{"type":"Feature","id":115,"geometry":{"type":"Point","coordinates":[-92.178512573242188,39.896427154541016]},"properties":{"FID":115,"citiesx020":18065,"feature":"Populated Place","name":"Leonard","pop_range":"0 - 9,999","pop_2000":66,"fips55":"41546","county":"Shelby County","fips":"29205","state":"MO","stfips":"29","display":"0"}},{"type":"Feature","id":116,"geometry":{"type":"Point","coordinates":[-93.979400634765625,40.005287170410156]},"properties":{"FID":116,"citiesx020":18085,"feature":"Populated Place","name":"Jameson","pop_range":"0 - 9,999","pop_2000":120,"fips55":"36314","county":"Daviess County","fips":"29061","state":"MO","stfips":"29","display":"0"}},{"type":"Feature","id":117,"geometry":{"type":"Point","coordinates":[-92.024063110351563,39.876708984375]},"properties":{"FID":117,"citiesx020":18091,"feature":"Populated Place","name":"Bethel","pop_range":"0 - 9,999","pop_2000":121,"fips55":"05104","county":"Shelby County","fips":"29205","state":"MO","stfips":"29","display":"0"}},{"type":"Feature","id":118,"geometry":{"type":"Point","coordinates":[-94.82080078125,40.04443359375]},"properties":{"FID":118,"citiesx020":18099,"feature":"Populated Place","name":"Rosendale","pop_range":"0 - 9,999","pop_2000":180,"fips55":"63200","county":"Andrew County","fips":"29003","state":"MO","stfips":"29","display":"0"}},{"type":"Feature","id":119,"geometry":{"type":"Point","coordinates":[-93.165763854980469,39.951961517333984]},"properties":{"FID":119,"citiesx020":18100,"feature":"Populated Place","name":"Purdin","pop_range":"0 - 9,999","pop_2000":223,"fips55":"60158","county":"Linn County","fips":"29115","state":"MO","stfips":"29","display":"0"}},{"type":"Feature","id":120,"geometry":{"type":"Point","coordinates":[-92.48101806640625,39.898643493652344]},"properties":{"FID":120,"citiesx020":18115,"feature":"Populated Place","name":"Atlanta","pop_range":"0 - 9,999","pop_2000":450,"fips55":"02422","county":"Macon County","fips":"29121","state":"MO","stfips":"29","display":"0"}},{"type":"Feature","id":121,"geometry":{"type":"Point","coordinates":[-91.739204406738281,39.8388671875]},"properties":{"FID":121,"citiesx020":18129,"feature":"Populated Place","name":"Philadelphia","pop_range":"Undetermined","pop_2000":-99999,"fips55":"57350","county":"Marion County","fips":"29127","state":"MO","stfips":"29","display":"0"}},{"type":"Feature","id":122,"geometry":{"type":"Point","coordinates":[-95.318321228027344,40.052219390869141]},"properties":{"FID":122,"citiesx020":18136,"feature":"Populated Place","name":"Fortescue","pop_range":"0 - 9,999","pop_2000":51,"fips55":"25228","county":"Holt County","fips":"29087","state":"MO","stfips":"29","display":"0"}},{"type":"Feature","id":123,"geometry":{"type":"Point","coordinates":[-93.801048278808594,39.9747314453125]},"properties":{"FID":123,"citiesx020":18139,"feature":"Populated Place","name":"Jamesport","pop_range":"0 - 9,999","pop_2000":505,"fips55":"36332","county":"Daviess County","fips":"29061","state":"MO","stfips":"29","display":"0"}},{"type":"Feature","id":124,"geometry":{"type":"Point","coordinates":[-94.973579406738281,40.025272369384766]},"properties":{"FID":124,"citiesx020":18165,"feature":"Populated Place","name":"Fillmore","pop_range":"0 - 9,999","pop_2000":211,"fips55":"24184","county":"Andrew County","fips":"29003","state":"MO","stfips":"29","display":"0"}},{"type":"Feature","id":125,"geometry":{"type":"Point","coordinates":[-92.737968444824219,39.894748687744141]},"properties":{"FID":125,"citiesx020":18175,"feature":"Populated Place","name":"Ethel","pop_range":"0 - 9,999","pop_2000":100,"fips55":"22672","county":"Macon County","fips":"29121","state":"MO","stfips":"29","display":"0"}},{"type":"Feature","id":126,"geometry":{"type":"Point","coordinates":[-94.346405029296875,39.988002777099609]},"properties":{"FID":126,"citiesx020":18181,"feature":"Populated Place","name":"Fairport","pop_range":"Undetermined","pop_2000":-99999,"fips55":"23446","county":"DeKalb County","fips":"29063","state":"MO","stfips":"29","display":"0"}},{"type":"Feature","id":127,"geometry":{"type":"Point","coordinates":[-91.523216247558594,39.794216156005859]},"properties":{"FID":127,"citiesx020":18194,"feature":"County Seat","name":"Palmyra","pop_range":"0 - 9,999","pop_2000":3467,"fips55":"56036","county":"Marion County","fips":"29127","state":"MO","stfips":"29","display":"0"}},{"type":"Feature","id":128,"geometry":{"type":"Point","coordinates":[-93.474380493164063,39.921688079833984]},"properties":{"FID":128,"citiesx020":18214,"feature":"Populated Place","name":"Chula","pop_range":"0 - 9,999","pop_2000":198,"fips55":"13852","county":"Livingston County","fips":"29117","state":"MO","stfips":"29","display":"0"}},{"type":"Feature","id":129,"geometry":{"type":"Point","coordinates":[-94.594406127929688,39.980556488037109]},"properties":{"FID":129,"citiesx020":18221,"feature":"Populated Place","name":"Union Star","pop_range":"0 - 9,999","pop_2000":433,"fips55":"75130","county":"DeKalb County","fips":"29063","state":"MO","stfips":"29","display":"0"}},{"type":"Feature","id":130,"geometry":{"type":"Point","coordinates":[-91.86358642578125,39.796489715576172]},"properties":{"FID":130,"citiesx020":18246,"feature":"Populated Place","name":"Emden","pop_range":"Undetermined","pop_2000":-99999,"fips55":"22240","county":"Shelby County","fips":"29205","state":"MO","stfips":"29","display":"0"}},{"type":"Feature","id":131,"geometry":{"type":"Point","coordinates":[-92.04156494140625,39.805866241455078]},"properties":{"FID":131,"citiesx020":18253,"feature":"County Seat","name":"Shelbyville","pop_range":"0 - 9,999","pop_2000":682,"fips55":"67196","county":"Shelby County","fips":"29205","state":"MO","stfips":"29","display":"0"}},{"type":"Feature","id":132,"geometry":{"type":"Point","coordinates":[-95.144973754882813,39.986934661865234]},"properties":{"FID":132,"citiesx020":18273,"feature":"County Seat","name":"Oregon","pop_range":"0 - 9,999","pop_2000":935,"fips55":"54848","county":"Holt County","fips":"29087","state":"MO","stfips":"29","display":"0"}},{"type":"Feature","id":133,"geometry":{"type":"Point","coordinates":[-93.188812255859375,39.878631591796875]},"properties":{"FID":133,"citiesx020":18276,"feature":"County Seat","name":"Linneus","pop_range":"0 - 9,999","pop_2000":369,"fips55":"43292","county":"Linn County","fips":"29115","state":"MO","stfips":"29","display":"0"}},{"type":"Feature","id":134,"geometry":{"type":"Point","coordinates":[-95.191925048828125,39.982494354248047]},"properties":{"FID":134,"citiesx020":18289,"feature":"Populated Place","name":"Forest City","pop_range":"0 - 9,999","pop_2000":338,"fips55":"25066","county":"Holt County","fips":"29087","state":"MO","stfips":"29","display":"0"}},{"type":"Feature","id":135,"geometry":{"type":"Point","coordinates":[-93.962158203125,39.914447784423828]},"properties":{"FID":135,"citiesx020":18299,"feature":"County Seat","name":"Gallatin","pop_range":"0 - 9,999","pop_2000":1789,"fips55":"26308","county":"Daviess County","fips":"29061","state":"MO","stfips":"29","display":"0"}},{"type":"Feature","id":136,"geometry":{"type":"Point","coordinates":[-94.830245971679688,39.941661834716797]},"properties":{"FID":136,"citiesx020":18337,"feature":"County Seat","name":"Savannah","pop_range":"0 - 9,999","pop_2000":4762,"fips55":"66044","county":"Andrew County","fips":"29003","state":"MO","stfips":"29","display":"0"}},{"type":"Feature","id":137,"geometry":{"type":"Point","coordinates":[-94.244400024414063,39.909439086914063]},"properties":{"FID":137,"citiesx020":18346,"feature":"Populated Place","name":"Weatherby","pop_range":"0 - 9,999","pop_2000":123,"fips55":"78028","county":"DeKalb County","fips":"29063","state":"MO","stfips":"29","display":"0"}},{"type":"Feature","id":138,"geometry":{"type":"Point","coordinates":[-91.358474731445313,39.7083740234375]},"properties":{"FID":138,"citiesx020":18368,"feature":"Populated Place","name":"Hannibal","pop_range":"10,000 - 49,999","pop_2000":17757,"fips55":"30214","county":"Marion County","fips":"29127","state":"MO","stfips":"29","display":"0"}},{"type":"Feature","id":139,"geometry":{"type":"Point","coordinates":[-94.089111328125,39.888614654541016]},"properties":{"FID":139,"citiesx020":18378,"feature":"Populated Place","name":"Altamont","pop_range":"0 - 9,999","pop_2000":218,"fips55":"00910","county":"Daviess County","fips":"29061","state":"MO","stfips":"29","display":"0"}},{"type":"Feature","id":140,"geometry":{"type":"Point","coordinates":[-94.361900329589844,39.889171600341797]},"properties":{"FID":140,"citiesx020":18400,"feature":"County Seat","name":"Maysville","pop_range":"0 - 9,999","pop_2000":1212,"fips55":"46946","county":"DeKalb County","fips":"29063","state":"MO","stfips":"29","display":"0"}},{"type":"Feature","id":141,"geometry":{"type":"Point","coordinates":[-94.139938354492188,39.870002746582031]},"properties":{"FID":141,"citiesx020":18417,"feature":"Populated Place","name":"Winston","pop_range":"0 - 9,999","pop_2000":247,"fips55":"80548","county":"Daviess County","fips":"29061","state":"MO","stfips":"29","display":"0"}},{"type":"Feature","id":142,"geometry":{"type":"Point","coordinates":[-93.777435302734375,39.848899841308594]},"properties":{"FID":142,"citiesx020":18421,"feature":"Populated Place","name":"Lock Springs","pop_range":"0 - 9,999","pop_2000":69,"fips55":"43472","county":"Daviess County","fips":"29061","state":"MO","stfips":"29","display":"0"}},{"type":"Feature","id":143,"geometry":{"type":"Point","coordinates":[-92.258514404296875,39.741977691650391]},"properties":{"FID":143,"citiesx020":18439,"feature":"Populated Place","name":"Clarence","pop_range":"0 - 9,999","pop_2000":915,"fips55":"13978","county":"Shelby County","fips":"29205","state":"MO","stfips":"29","display":"0"}},{"type":"Feature","id":144,"geometry":{"type":"Point","coordinates":[-92.750473022460938,39.775310516357422]},"properties":{"FID":144,"citiesx020":18442,"feature":"Populated Place","name":"New Cambria","pop_range":"0 - 9,999","pop_2000":222,"fips55":"51734","county":"Macon County","fips":"29121","state":"MO","stfips":"29","display":"0"}},{"type":"Feature","id":145,"geometry":{"type":"Point","coordinates":[-92.89019775390625,39.781696319580078]},"properties":{"FID":145,"citiesx020":18447,"feature":"Populated Place","name":"Bucklin","pop_range":"0 - 9,999","pop_2000":524,"fips55":"09388","county":"Linn County","fips":"29115","state":"MO","stfips":"29","display":"0"}},{"type":"Feature","id":146,"geometry":{"type":"Point","coordinates":[-94.435791015625,39.870826721191406]},"properties":{"FID":146,"citiesx020":18450,"feature":"Populated Place","name":"Amity","pop_range":"0 - 9,999","pop_2000":70,"fips55":"01054","county":"DeKalb County","fips":"29063","state":"MO","stfips":"29","display":"0"}},{"type":"Feature","id":147,"geometry":{"type":"Point","coordinates":[-92.623252868652344,39.760860443115234]},"properties":{"FID":147,"citiesx020":18454,"feature":"Populated Place","name":"Callao","pop_range":"0 - 9,999","pop_2000":291,"fips55":"10486","county":"Macon County","fips":"29121","state":"MO","stfips":"29","display":"0"}},{"type":"Feature","id":148,"geometry":{"type":"Point","coordinates":[-93.073532104492188,39.784461975097656]},"properties":{"FID":148,"citiesx020":18468,"feature":"Populated Place","name":"Brookfield","pop_range":"0 - 9,999","pop_2000":4769,"fips55":"08650","county":"Linn County","fips":"29115","state":"MO","stfips":"29","display":"0"}},{"type":"Feature","id":149,"geometry":{"type":"Point","coordinates":[-94.891914367675781,39.886100769042969]},"properties":{"FID":149,"citiesx020":18469,"feature":"Populated Place","name":"Amazonia","pop_range":"0 - 9,999","pop_2000":277,"fips55":"01018","county":"Andrew County","fips":"29003","state":"MO","stfips":"29","display":"0"}},{"type":"Feature","id":150,"geometry":{"type":"Point","coordinates":[-92.472686767578125,39.742256164550781]},"properties":{"FID":150,"citiesx020":18472,"feature":"County Seat","name":"Macon","pop_range":"0 - 9,999","pop_2000":5538,"fips55":"45326","county":"Macon County","fips":"29121","state":"MO","stfips":"29","display":"0"}},{"type":"Feature","id":151,"geometry":{"type":"Point","coordinates":[-92.564079284667969,39.746971130371094]},"properties":{"FID":151,"citiesx020":18476,"feature":"Populated Place","name":"Bevier","pop_range":"0 - 9,999","pop_2000":723,"fips55":"05266","county":"Macon County","fips":"29121","state":"MO","stfips":"29","display":"0"}},{"type":"Feature","id":152,"geometry":{"type":"Point","coordinates":[-91.544593811035156,39.670604705810547]},"properties":{"FID":152,"citiesx020":18479,"feature":"Populated Place","name":"Rensselaer","pop_range":"0 - 9,999","pop_2000":145,"fips55":"61184","county":"Ralls County","fips":"29173","state":"MO","stfips":"29","display":"0"}},{"type":"Feature","id":153,"geometry":{"type":"Point","coordinates":[-93.166595458984375,39.78558349609375]},"properties":{"FID":153,"citiesx020":18481,"feature":"Populated Place","name":"Laclede","pop_range":"0 - 9,999","pop_2000":415,"fips55":"39566","county":"Linn County","fips":"29115","state":"MO","stfips":"29","display":"0"}},{"type":"Feature","id":154,"geometry":{"type":"Point","coordinates":[-94.678298950195313,39.864166259765625]},"properties":{"FID":154,"citiesx020":18497,"feature":"Populated Place","name":"Cosby","pop_range":"0 - 9,999","pop_2000":143,"fips55":"16588","county":"Andrew County","fips":"29003","state":"MO","stfips":"29","display":"0"}},{"type":"Feature","id":155,"geometry":{"type":"Point","coordinates":[-93.302146911621094,39.784191131591797]},"properties":{"FID":155,"citiesx020":18502,"feature":"Populated Place","name":"Meadville","pop_range":"0 - 9,999","pop_2000":457,"fips55":"47036","county":"Linn County","fips":"29115","state":"MO","stfips":"29","display":"0"}},{"type":"Feature","id":156,"geometry":{"type":"Point","coordinates":[-93.385490417480469,39.786689758300781]},"properties":{"FID":156,"citiesx020":18510,"feature":"Populated Place","name":"Wheeling","pop_range":"0 - 9,999","pop_2000":268,"fips55":"79180","county":"Livingston County","fips":"29117","state":"MO","stfips":"29","display":"0"}},{"type":"Feature","id":157,"geometry":{"type":"Point","coordinates":[-93.552436828613281,39.795295715332031]},"properties":{"FID":157,"citiesx020":18511,"feature":"County Seat","name":"Chillicothe","pop_range":"0 - 9,999","pop_2000":8968,"fips55":"13690","county":"Livingston County","fips":"29117","state":"MO","stfips":"29","display":"0"}},{"type":"Feature","id":158,"geometry":{"type":"Point","coordinates":[-92.042953491210938,39.693927764892578]},"properties":{"FID":158,"citiesx020":18513,"feature":"Populated Place","name":"Shelbina","pop_range":"0 - 9,999","pop_2000":1943,"fips55":"67178","county":"Shelby County","fips":"29205","state":"MO","stfips":"29","display":"0"}},{"type":"Feature","id":159,"geometry":{"type":"Point","coordinates":[-91.861839294433594,39.668102264404297]},"properties":{"FID":159,"citiesx020":18538,"feature":"Populated Place","name":"Hunnewell","pop_range":"0 - 9,999","pop_2000":227,"fips55":"33760","county":"Shelby County","fips":"29205","state":"MO","stfips":"29","display":"0"}},{"type":"Feature","id":160,"geometry":{"type":"Point","coordinates":[-91.734603881835938,39.653652191162109]},"properties":{"FID":160,"citiesx020":18549,"feature":"Populated Place","name":"Monroe City","pop_range":"0 - 9,999","pop_2000":2588,"fips55":"49394","county":"Monroe County","fips":"29137","state":"MO","stfips":"29","display":"0"}},{"type":"Feature","id":161,"geometry":{"type":"Point","coordinates":[-94.821632385253906,39.832210540771484]},"properties":{"FID":161,"citiesx020":18573,"feature":"Populated Place","name":"Country Club Village","pop_range":"0 - 9,999","pop_2000":1846,"fips55":"16802","county":"Andrew County","fips":"29003","state":"MO","stfips":"29","display":"0"}},{"type":"Feature","id":162,"geometry":{"type":"Point","coordinates":[-94.550514221191406,39.813606262207031]},"properties":{"FID":162,"citiesx020":18586,"feature":"Populated Place","name":"Clarksdale","pop_range":"0 - 9,999","pop_2000":351,"fips55":"14158","county":"DeKalb County","fips":"29063","state":"MO","stfips":"29","display":"0"}},{"type":"Feature","id":163,"geometry":{"type":"Point","coordinates":[-92.948257446289063,39.711967468261719]},"properties":{"FID":163,"citiesx020":18611,"feature":"Populated Place","name":"Marceline","pop_range":"0 - 9,999","pop_2000":2558,"fips55":"45866","county":"Linn County","fips":"29115","state":"MO","stfips":"29","display":"0"}},{"type":"Feature","id":164,"geometry":{"type":"Point","coordinates":[-94.102439880371094,39.780284881591797]},"properties":{"FID":164,"citiesx020":18616,"feature":"Populated Place","name":"Kidder","pop_range":"0 - 9,999","pop_2000":271,"fips55":"38522","county":"Caldwell County","fips":"29025","state":"MO","stfips":"29","display":"0"}},{"type":"Feature","id":165,"geometry":{"type":"Point","coordinates":[-93.80438232421875,39.762229919433594]},"properties":{"FID":165,"citiesx020":18621,"feature":"Populated Place","name":"Breckenridge","pop_range":"0 - 9,999","pop_2000":454,"fips55":"08128","county":"Caldwell County","fips":"29025","state":"MO","stfips":"29","display":"0"}},{"type":"Feature","id":166,"geometry":{"type":"Point","coordinates":[-93.626602172851563,39.743625640869141]},"properties":{"FID":166,"citiesx020":18645,"feature":"Populated Place","name":"Utica","pop_range":"0 - 9,999","pop_2000":274,"fips55":"75364","county":"Livingston County","fips":"29117","state":"MO","stfips":"29","display":"0"}},{"type":"Feature","id":167,"geometry":{"type":"Point","coordinates":[-91.400985717773438,39.5853271484375]},"properties":{"FID":167,"citiesx020":18652,"feature":"County Seat","name":"New London","pop_range":"0 - 9,999","pop_2000":1001,"fips55":"52058","county":"Ralls County","fips":"29173","state":"MO","stfips":"29","display":"0"}},{"type":"Feature","id":168,"geometry":{"type":"Point","coordinates":[-93.71771240234375,39.745296478271484]},"properties":{"FID":168,"citiesx020":18655,"feature":"Populated Place","name":"Mooresville","pop_range":"0 - 9,999","pop_2000":89,"fips55":"49790","county":"Livingston County","fips":"29117","state":"MO","stfips":"29","display":"0"}},{"type":"Feature","id":169,"geometry":{"type":"Point","coordinates":[-93.998283386230469,39.743618011474609]},"properties":{"FID":169,"citiesx020":18689,"feature":"Populated Place","name":"Hamilton","pop_range":"0 - 9,999","pop_2000":1813,"fips55":"30034","county":"Caldwell County","fips":"29025","state":"MO","stfips":"29","display":"0"}},{"type":"Feature","id":170,"geometry":{"type":"Point","coordinates":[-91.168746948242188,39.544765472412109]},"properties":{"FID":170,"citiesx020":18693,"feature":"Populated Place","name":"Ashburn","pop_range":"0 - 9,999","pop_2000":51,"fips55":"02152","county":"Pike County","fips":"29163","state":"MO","stfips":"29","display":"0"}},{"type":"Feature","id":171,"geometry":{"type":"Point","coordinates":[-92.476058959960938,39.636238098144531]},"properties":{"FID":171,"citiesx020":18706,"feature":"Populated Place","name":"Excello","pop_range":"Undetermined","pop_2000":-99999,"fips55":"23050","county":"Macon County","fips":"29121","state":"MO","stfips":"29","display":"0"}},{"type":"Feature","id":172,"geometry":{"type":"Point","coordinates":[-94.355232238769531,39.747219085693359]},"properties":{"FID":172,"citiesx020":18717,"feature":"Populated Place","name":"Osborn","pop_range":"0 - 9,999","pop_2000":455,"fips55":"55352","county":"DeKalb County","fips":"29063","state":"MO","stfips":"29","display":"0"}},{"type":"Feature","id":173,"geometry":{"type":"Point","coordinates":[-94.241050720214844,39.740283966064453]},"properties":{"FID":173,"citiesx020":18720,"feature":"Populated Place","name":"Cameron","pop_range":"0 - 9,999","pop_2000":8312,"fips55":"10828","county":"Clinton County","fips":"29049","state":"MO","stfips":"29","display":"0"}},{"type":"Feature","id":174,"geometry":{"type":"Point","coordinates":[-94.846633911132813,39.768604278564453]},"properties":{"FID":174,"citiesx020":18727,"feature":"County Seat","name":"Saint Joseph","pop_range":"50,000 - 99,999","pop_2000":73990,"fips55":"64550","county":"Buchanan County","fips":"29021","state":"MO","stfips":"29","display":"0"}},{"type":"Feature","id":175,"geometry":{"type":"Point","coordinates":[-94.496620178222656,39.750827789306641]},"properties":{"FID":175,"citiesx020":18729,"feature":"Populated Place","name":"Stewartsville","pop_range":"0 - 9,999","pop_2000":759,"fips55":"70738","county":"DeKalb County","fips":"29063","state":"MO","stfips":"29","display":"0"}},{"type":"Feature","id":176,"geometry":{"type":"Point","coordinates":[-91.659133911132813,39.5594482421875]},"properties":{"FID":176,"citiesx020":18744,"feature":"Populated Place","name":"The Landing","pop_range":"Undetermined","pop_2000":-99999,"fips55":"72872","county":"Ralls County","fips":"29173","state":"MO","stfips":"29","display":"1"}},{"type":"Feature","id":177,"geometry":{"type":"Point","coordinates":[-93.0640869140625,39.653354644775391]},"properties":{"FID":177,"citiesx020":18761,"feature":"Populated Place","name":"Rothville","pop_range":"0 - 9,999","pop_2000":93,"fips55":"63236","county":"Chariton County","fips":"29041","state":"MO","stfips":"29","display":"0"}},{"type":"Feature","id":178,"geometry":{"type":"Point","coordinates":[-93.244644165039063,39.652523040771484]},"properties":{"FID":178,"citiesx020":18784,"feature":"Populated Place","name":"Sumner","pop_range":"0 - 9,999","pop_2000":142,"fips55":"71620","county":"Chariton County","fips":"29041","state":"MO","stfips":"29","display":"0"}},{"type":"Feature","id":179,"geometry":{"type":"Point","coordinates":[-93.442253112792969,39.659400939941406]},"properties":{"FID":179,"citiesx020":18793,"feature":"Populated Place","name":"Avalon","pop_range":"Undetermined","pop_2000":-99999,"fips55":"02692","county":"Livingston County","fips":"29117","state":"MO","stfips":"29","display":"0"}},{"type":"Feature","id":180,"geometry":{"type":"Point","coordinates":[-91.858497619628906,39.547256469726563]},"properties":{"FID":180,"citiesx020":18799,"feature":"Populated Place","name":"Stoutsville","pop_range":"0 - 9,999","pop_2000":44,"fips55":"71026","county":"Monroe County","fips":"29137","state":"MO","stfips":"29","display":"0"}},{"type":"Feature","id":181,"geometry":{"type":"Point","coordinates":[-94.641624450683594,39.722217559814453]},"properties":{"FID":181,"citiesx020":18800,"feature":"Populated Place","name":"Easton","pop_range":"0 - 9,999","pop_2000":258,"fips55":"21034","county":"Buchanan County","fips":"29021","state":"MO","stfips":"29","display":"0"}},{"type":"Feature","id":182,"geometry":{"type":"Point","coordinates":[-92.471290588378906,39.588363647460938]},"properties":{"FID":182,"citiesx020":18806,"feature":"Populated Place","name":"Jacksonville","pop_range":"0 - 9,999","pop_2000":163,"fips55":"36224","county":"Randolph County","fips":"29175","state":"MO","stfips":"29","display":"0"}},{"type":"Feature","id":183,"geometry":{"type":"Point","coordinates":[-91.528762817382813,39.508102416992188]},"properties":{"FID":183,"citiesx020":18827,"feature":"Populated Place","name":"Center","pop_range":"0 - 9,999","pop_2000":644,"fips55":"12592","county":"Ralls County","fips":"29173","state":"MO","stfips":"29","display":"0"}},{"type":"Feature","id":184,"geometry":{"type":"Point","coordinates":[-91.320144653320313,39.490047454833984]},"properties":{"FID":184,"citiesx020":18830,"feature":"Populated Place","name":"Frankford","pop_range":"0 - 9,999","pop_2000":351,"fips55":"25552","county":"Pike County","fips":"29163","state":"MO","stfips":"29","display":"0"}},{"type":"Feature","id":185,"geometry":{"type":"Point","coordinates":[-93.702156066894531,39.655014038085938]},"properties":{"FID":185,"citiesx020":18834,"feature":"Populated Place","name":"Ludlow","pop_range":"0 - 9,999","pop_2000":204,"fips55":"44390","county":"Livingston County","fips":"29117","state":"MO","stfips":"29","display":"0"}},{"type":"Feature","id":186,"geometry":{"type":"Point","coordinates":[-91.051528930664063,39.448936462402344]},"properties":{"FID":186,"citiesx020":18883,"feature":"Populated Place","name":"Louisiana","pop_range":"0 - 9,999","pop_2000":3863,"fips55":"44174","county":"Pike County","fips":"29163","state":"MO","stfips":"29","display":"0"}},{"type":"Feature","id":187,"geometry":{"type":"Point","coordinates":[-91.942390441894531,39.513927459716797]},"properties":{"FID":187,"citiesx020":18900,"feature":"Populated Place","name":"Goss","pop_range":"Undetermined","pop_2000":-99999,"fips55":"28000","county":"Monroe County","fips":"29137","state":"MO","stfips":"29","display":"0"}},{"type":"Feature","id":188,"geometry":{"type":"Point","coordinates":[-93.342422485351563,39.603633880615234]},"properties":{"FID":188,"citiesx020":18911,"feature":"Populated Place","name":"Hale","pop_range":"0 - 9,999","pop_2000":473,"fips55":"29908","county":"Carroll County","fips":"29033","state":"MO","stfips":"29","display":"0"}},{"type":"Feature","id":189,"geometry":{"type":"Point","coordinates":[-94.038551330566406,39.644176483154297]},"properties":{"FID":189,"citiesx020":18912,"feature":"County Seat","name":"Kingston","pop_range":"0 - 9,999","pop_2000":287,"fips55":"38846","county":"Caldwell County","fips":"29025","state":"MO","stfips":"29","display":"0"}},{"type":"Feature","id":190,"geometry":{"type":"Point","coordinates":[-93.134635925292969,39.589744567871094]},"properties":{"FID":190,"citiesx020":18913,"feature":"Populated Place","name":"Mendon","pop_range":"0 - 9,999","pop_2000":208,"fips55":"47288","county":"Chariton County","fips":"29041","state":"MO","stfips":"29","display":"0"}},{"type":"Feature","id":191,"geometry":{"type":"Point","coordinates":[-91.787101745605469,39.49310302734375]},"properties":{"FID":191,"citiesx020":18916,"feature":"Populated Place","name":"Florida","pop_range":"0 - 9,999","pop_2000":9,"fips55":"24760","county":"Monroe County","fips":"29137","state":"MO","stfips":"29","display":"0"}},{"type":"Feature","id":192,"geometry":{"type":"Point","coordinates":[-94.321052551269531,39.634719848632813]},"properties":{"FID":192,"citiesx020":18961,"feature":"Populated Place","name":"Turney","pop_range":"0 - 9,999","pop_2000":155,"fips55":"74176","county":"Clinton County","fips":"29049","state":"MO","stfips":"29","display":"0"}},{"type":"Feature","id":193,"geometry":{"type":"Point","coordinates":[-92.1287841796875,39.494476318359375]},"properties":{"FID":193,"citiesx020":18966,"feature":"Populated Place","name":"Holliday","pop_range":"0 - 9,999","pop_2000":129,"fips55":"32626","county":"Monroe County","fips":"29137","state":"MO","stfips":"29","display":"0"}},{"type":"Feature","id":194,"geometry":{"type":"Point","coordinates":[-92.001274108886719,39.480869293212891]},"properties":{"FID":194,"citiesx020":18974,"feature":"County Seat","name":"Paris","pop_range":"0 - 9,999","pop_2000":1529,"fips55":"56144","county":"Monroe County","fips":"29137","state":"MO","stfips":"29","display":"0"}},{"type":"Feature","id":195,"geometry":{"type":"Point","coordinates":[-92.440460205078125,39.511974334716797]},"properties":{"FID":195,"citiesx020":18977,"feature":"Populated Place","name":"Cairo","pop_range":"0 - 9,999","pop_2000":293,"fips55":"10360","county":"Randolph County","fips":"29175","state":"MO","stfips":"29","display":"0"}},{"type":"Feature","id":196,"geometry":{"type":"Point","coordinates":[-94.739959716796875,39.64471435546875]},"properties":{"FID":196,"citiesx020":18985,"feature":"Populated Place","name":"Agency","pop_range":"0 - 9,999","pop_2000":599,"fips55":"00298","county":"Buchanan County","fips":"29021","state":"MO","stfips":"29","display":"0"}},{"type":"Feature","id":197,"geometry":{"type":"Point","coordinates":[-93.796043395996094,39.586956024169922]},"properties":{"FID":197,"citiesx020":19000,"feature":"Populated Place","name":"Braymer","pop_range":"0 - 9,999","pop_2000":910,"fips55":"08038","county":"Caldwell County","fips":"29025","state":"MO","stfips":"29","display":"0"}},{"type":"Feature","id":198,"geometry":{"type":"Point","coordinates":[-92.738494873046875,39.518596649169922]},"properties":{"FID":198,"citiesx020":19006,"feature":"Populated Place","name":"Prairie Hill","pop_range":"Undetermined","pop_2000":-99999,"fips55":"59708","county":"Chariton County","fips":"29041","state":"MO","stfips":"29","display":"0"}},{"type":"Feature","id":199,"geometry":{"type":"Point","coordinates":[-92.209892272949219,39.473648071289063]},"properties":{"FID":199,"citiesx020":19018,"feature":"Populated Place","name":"Madison","pop_range":"0 - 9,999","pop_2000":586,"fips55":"45470","county":"Monroe County","fips":"29137","state":"MO","stfips":"29","display":"0"}},{"type":"Feature","id":200,"geometry":{"type":"Point","coordinates":[-90.905128479003906,39.37060546875]},"properties":{"FID":200,"citiesx020":19019,"feature":"Populated Place","name":"Clarksville","pop_range":"0 - 9,999","pop_2000":490,"fips55":"14194","county":"Pike County","fips":"29163","state":"MO","stfips":"29","display":"0"}},{"type":"Feature","id":201,"geometry":{"type":"Point","coordinates":[-91.675163269042969,39.43115234375]},"properties":{"FID":201,"citiesx020":19026,"feature":"Populated Place","name":"Perry","pop_range":"0 - 9,999","pop_2000":666,"fips55":"57080","county":"Ralls County","fips":"29173","state":"MO","stfips":"29","display":"0"}},{"type":"Feature","id":202,"geometry":{"type":"Point","coordinates":[-94.599403381347656,39.610824584960938]},"properties":{"FID":202,"citiesx020":19038,"feature":"Populated Place","name":"Gower","pop_range":"0 - 9,999","pop_2000":1399,"fips55":"28036","county":"Clinton County","fips":"29049","state":"MO","stfips":"29","display":"0"}},{"type":"Feature","id":203,"geometry":{"type":"Point","coordinates":[-93.440216064453125,39.5361328125]},"properties":{"FID":203,"citiesx020":19063,"feature":"Populated Place","name":"Tina","pop_range":"0 - 9,999","pop_2000":193,"fips55":"73330","county":"Carroll County","fips":"29033","state":"MO","stfips":"29","display":"0"}},{"type":"Feature","id":204,"geometry":{"type":"Point","coordinates":[-93.9268798828125,39.559181213378906]},"properties":{"FID":204,"citiesx020":19071,"feature":"Populated Place","name":"Cowgill","pop_range":"0 - 9,999","pop_2000":247,"fips55":"16984","county":"Caldwell County","fips":"29025","state":"MO","stfips":"29","display":"0"}},{"type":"Feature","id":205,"geometry":{"type":"Point","coordinates":[-94.798080444335938,39.600082397460938]},"properties":{"FID":205,"citiesx020":19084,"feature":"Populated Place","name":"Faucett","pop_range":"Undetermined","pop_2000":-99999,"fips55":"23824","county":"Buchanan County","fips":"29021","state":"MO","stfips":"29","display":"0"}},{"type":"Feature","id":206,"geometry":{"type":"Point","coordinates":[-91.18292236328125,39.356716156005859]},"properties":{"FID":206,"citiesx020":19094,"feature":"Populated Place","name":"Tarrants","pop_range":"0 - 9,999","pop_2000":30,"fips55":"72376","county":"Pike County","fips":"29163","state":"MO","stfips":"29","display":"0"}},{"type":"Feature","id":207,"geometry":{"type":"Point","coordinates":[-94.040779113769531,39.552227020263672]},"properties":{"FID":207,"citiesx020":19098,"feature":"Populated Place","name":"Polo","pop_range":"0 - 9,999","pop_2000":582,"fips55":"58916","county":"Caldwell County","fips":"29025","state":"MO","stfips":"29","display":"0"}},{"type":"Feature","id":208,"geometry":{"type":"Point","coordinates":[-93.193817138671875,39.498081207275391]},"properties":{"FID":208,"citiesx020":19106,"feature":"Populated Place","name":"Triplett","pop_range":"0 - 9,999","pop_2000":64,"fips55":"73870","county":"Chariton County","fips":"29041","state":"MO","stfips":"29","display":"0"}},{"type":"Feature","id":209,"geometry":{"type":"Point","coordinates":[-94.448005676269531,39.565559387207031]},"properties":{"FID":209,"citiesx020":19113,"feature":"County Seat","name":"Plattsburg","pop_range":"0 - 9,999","pop_2000":2354,"fips55":"58250","county":"Clinton County","fips":"29049","state":"MO","stfips":"29","display":"0"}},{"type":"Feature","id":210,"geometry":{"type":"Point","coordinates":[-94.925247192382813,39.586936950683594]},"properties":{"FID":210,"citiesx020":19125,"feature":"Populated Place","name":"De Kalb","pop_range":"0 - 9,999","pop_2000":257,"fips55":"18946","county":"Buchanan County","fips":"29021","state":"MO","stfips":"29","display":"0"}},{"type":"Feature","id":211,"geometry":{"type":"Point","coordinates":[-91.195144653320313,39.341987609863281]},"properties":{"FID":211,"citiesx020":19133,"feature":"County Seat","name":"Bowling Green","pop_range":"0 - 9,999","pop_2000":3260,"fips55":"07660","county":"Pike County","fips":"29163","state":"MO","stfips":"29","display":"0"}},{"type":"Feature","id":212,"geometry":{"type":"Point","coordinates":[-95.026077270507813,39.586666107177734]},"properties":{"FID":212,"citiesx020":19136,"feature":"Populated Place","name":"Rushville","pop_range":"0 - 9,999","pop_2000":280,"fips55":"63596","county":"Buchanan County","fips":"29021","state":"MO","stfips":"29","display":"0"}},{"type":"Feature","id":213,"geometry":{"type":"Point","coordinates":[-92.545181274414063,39.440593719482422]},"properties":{"FID":213,"citiesx020":19143,"feature":"County Seat","name":"Huntsville","pop_range":"0 - 9,999","pop_2000":1553,"fips55":"33886","county":"Randolph County","fips":"29175","state":"MO","stfips":"29","display":"0"}},{"type":"Feature","id":214,"geometry":{"type":"Point","coordinates":[-94.329940795898438,39.548332214355469]},"properties":{"FID":214,"citiesx020":19146,"feature":"Populated Place","name":"Lathrop","pop_range":"0 - 9,999","pop_2000":2092,"fips55":"40826","county":"Clinton County","fips":"29049","state":"MO","stfips":"29","display":"0"}},{"type":"Feature","id":215,"geometry":{"type":"Point","coordinates":[-91.344871520996094,39.345600128173828]},"properties":{"FID":215,"citiesx020":19149,"feature":"Populated Place","name":"Curryville","pop_range":"0 - 9,999","pop_2000":251,"fips55":"17902","county":"Pike County","fips":"29163","state":"MO","stfips":"29","display":"0"}},{"type":"Feature","id":216,"geometry":{"type":"Point","coordinates":[-92.666290283203125,39.438091278076172]},"properties":{"FID":216,"citiesx020":19162,"feature":"Populated Place","name":"Clifton Hill","pop_range":"0 - 9,999","pop_2000":124,"fips55":"14896","county":"Randolph County","fips":"29175","state":"MO","stfips":"29","display":"0"}},{"type":"Feature","id":217,"geometry":{"type":"Point","coordinates":[-92.438240051269531,39.418365478515625]},"properties":{"FID":217,"citiesx020":19170,"feature":"Populated Place","name":"Moberly","pop_range":"10,000 - 49,999","pop_2000":11945,"fips55":"49034","county":"Randolph County","fips":"29175","state":"MO","stfips":"29","display":"0"}},{"type":"Feature","id":218,"geometry":{"type":"Point","coordinates":[-91.819145202636719,39.369209289550781]},"properties":{"FID":218,"citiesx020":19175,"feature":"Populated Place","name":"Santa Fe","pop_range":"Undetermined","pop_2000":-99999,"fips55":"65900","county":"Monroe County","fips":"29137","state":"MO","stfips":"29","display":"0"}},{"type":"Feature","id":219,"geometry":{"type":"Point","coordinates":[-93.334648132324219,39.469741821289063]},"properties":{"FID":219,"citiesx020":19183,"feature":"Populated Place","name":"Bosworth","pop_range":"0 - 9,999","pop_2000":382,"fips55":"07426","county":"Carroll County","fips":"29033","state":"MO","stfips":"29","display":"0"}},{"type":"Feature","id":220,"geometry":{"type":"Point","coordinates":[-92.270454406738281,39.395038604736328]},"properties":{"FID":220,"citiesx020":19196,"feature":"Populated Place","name":"Middle Grove","pop_range":"Undetermined","pop_2000":-99999,"fips55":"47846","county":"Monroe County","fips":"29137","state":"MO","stfips":"29","display":"0"}},{"type":"Feature","id":221,"geometry":{"type":"Point","coordinates":[-94.564399719238281,39.5333251953125]},"properties":{"FID":221,"citiesx020":19201,"feature":"Populated Place","name":"Grayson","pop_range":"Undetermined","pop_2000":-99999,"fips55":"28882","county":"Clinton County","fips":"29049","state":"MO","stfips":"29","display":"0"}},{"type":"Feature","id":222,"geometry":{"type":"Point","coordinates":[-92.938247680664063,39.434467315673828]},"properties":{"FID":222,"citiesx020":19211,"feature":"County Seat","name":"Keytesville","pop_range":"0 - 9,999","pop_2000":533,"fips55":"38468","county":"Chariton County","fips":"29041","state":"MO","stfips":"29","display":"0"}},{"type":"Feature","id":223,"geometry":{"type":"Point","coordinates":[-94.1546630859375,39.507228851318359]},"properties":{"FID":223,"citiesx020":19213,"feature":"Populated Place","name":"Elmira","pop_range":"0 - 9,999","pop_2000":82,"fips55":"22006","county":"Ray County","fips":"29177","state":"MO","stfips":"29","display":"0"}},{"type":"Feature","id":224,"geometry":{"type":"Point","coordinates":[-92.801582336425781,39.423915863037109]},"properties":{"FID":224,"citiesx020":19215,"feature":"Populated Place","name":"Salisbury","pop_range":"0 - 9,999","pop_2000":1726,"fips55":"65450","county":"Chariton County","fips":"29041","state":"MO","stfips":"29","display":"0"}},{"type":"Feature","id":225,"geometry":{"type":"Point","coordinates":[-90.827629089355469,39.261154174804688]},"properties":{"FID":225,"citiesx020":19234,"feature":"Populated Place","name":"Annada","pop_range":"0 - 9,999","pop_2000":48,"fips55":"01252","county":"Pike County","fips":"29163","state":"MO","stfips":"29","display":"0"}},{"type":"Feature","id":226,"geometry":{"type":"Point","coordinates":[-93.523544311523438,39.45751953125]},"properties":{"FID":226,"citiesx020":19235,"feature":"Populated Place","name":"Bogard","pop_range":"0 - 9,999","pop_2000":234,"fips55":"06832","county":"Carroll County","fips":"29033","state":"MO","stfips":"29","display":"0"}},{"type":"Feature","id":227,"geometry":{"type":"Point","coordinates":[-94.76995849609375,39.521934509277344]},"properties":{"FID":227,"citiesx020":19245,"feature":"Populated Place","name":"Dearborn","pop_range":"0 - 9,999","pop_2000":529,"fips55":"18658","county":"Platte County","fips":"29165","state":"MO","stfips":"29","display":"0"}},{"type":"Feature","id":228,"geometry":{"type":"Point","coordinates":[-90.900413513183594,39.262546539306641]},"properties":{"FID":228,"citiesx020":19247,"feature":"Populated Place","name":"Paynesville","pop_range":"0 - 9,999","pop_2000":91,"fips55":"56612","county":"Pike County","fips":"29163","state":"MO","stfips":"29","display":"0"}},{"type":"Feature","id":229,"geometry":{"type":"Point","coordinates":[-91.488479614257813,39.310871124267578]},"properties":{"FID":229,"citiesx020":19248,"feature":"Populated Place","name":"Vandalia","pop_range":"0 - 9,999","pop_2000":2529,"fips55":"75688","county":"Audrain County","fips":"29007","state":"MO","stfips":"29","display":"0"}},{"type":"Feature","id":230,"geometry":{"type":"Point","coordinates":[-93.130477905273438,39.423351287841797]},"properties":{"FID":230,"citiesx020":19257,"feature":"Populated Place","name":"Brunswick","pop_range":"0 - 9,999","pop_2000":925,"fips55":"09046","county":"Chariton County","fips":"29041","state":"MO","stfips":"29","display":"0"}},{"type":"Feature","id":231,"geometry":{"type":"Point","coordinates":[-94.633293151855469,39.504997253417969]},"properties":{"FID":231,"citiesx020":19262,"feature":"Populated Place","name":"Edgerton","pop_range":"0 - 9,999","pop_2000":533,"fips55":"21250","county":"Platte County","fips":"29165","state":"MO","stfips":"29","display":"0"}},{"type":"Feature","id":232,"geometry":{"type":"Point","coordinates":[-92.989913940429688,39.397525787353516]},"properties":{"FID":232,"citiesx020":19286,"feature":"Populated Place","name":"Dalton","pop_range":"0 - 9,999","pop_2000":27,"fips55":"18118","county":"Chariton County","fips":"29041","state":"MO","stfips":"29","display":"0"}},{"type":"Feature","id":233,"geometry":{"type":"Point","coordinates":[-91.008193969726563,39.235874176025391]},"properties":{"FID":233,"citiesx020":19310,"feature":"Populated Place","name":"Eolia","pop_range":"0 - 9,999","pop_2000":435,"fips55":"22474","county":"Pike County","fips":"29163","state":"MO","stfips":"29","display":"0"}},{"type":"Feature","id":234,"geometry":{"type":"Point","coordinates":[-94.017379760742188,39.446094512939453]},"properties":{"FID":234,"citiesx020":19311,"feature":"Populated Place","name":"Knoxville","pop_range":"Undetermined","pop_2000":-99999,"fips55":"39296","county":"Ray County","fips":"29177","state":"MO","stfips":"29","display":"0"}},{"type":"Feature","id":235,"geometry":{"type":"Point","coordinates":[-92.413795471191406,39.342819213867188]},"properties":{"FID":235,"citiesx020":19315,"feature":"Populated Place","name":"Renick","pop_range":"0 - 9,999","pop_2000":221,"fips55":"61166","county":"Randolph County","fips":"29175","state":"MO","stfips":"29","display":"0"}},{"type":"Feature","id":236,"geometry":{"type":"Point","coordinates":[-91.220710754394531,39.251190185546875]},"properties":{"FID":236,"citiesx020":19316,"feature":"Populated Place","name":"Ashley","pop_range":"Undetermined","pop_2000":-99999,"fips55":"02260","county":"Pike County","fips":"29163","state":"MO","stfips":"29","display":"0"}},{"type":"Feature","id":237,"geometry":{"type":"Point","coordinates":[-94.564666748046875,39.471111297607422]},"properties":{"FID":237,"citiesx020":19322,"feature":"Populated Place","name":"Trimble","pop_range":"0 - 9,999","pop_2000":451,"fips55":"73852","county":"Clinton County","fips":"29049","state":"MO","stfips":"29","display":"0"}},{"type":"Feature","id":238,"geometry":{"type":"Point","coordinates":[-91.574600219726563,39.272541046142578]},"properties":{"FID":238,"citiesx020":19329,"feature":"Populated Place","name":"Farber","pop_range":"0 - 9,999","pop_2000":411,"fips55":"23662","county":"Audrain County","fips":"29007","state":"MO","stfips":"29","display":"0"}},{"type":"Feature","id":239,"geometry":{"type":"Point","coordinates":[-94.3421630859375,39.452785491943359]},"properties":{"FID":239,"citiesx020":19333,"feature":"Populated Place","name":"Holt","pop_range":"0 - 9,999","pop_2000":405,"fips55":"32752","county":"Clay County","fips":"29047","state":"MO","stfips":"29","display":"0"}},{"type":"Feature","id":240,"geometry":{"type":"Point","coordinates":[-93.221038818359375,39.384464263916016]},"properties":{"FID":240,"citiesx020":19341,"feature":"Populated Place","name":"De Witt","pop_range":"0 - 9,999","pop_2000":120,"fips55":"19378","county":"Carroll County","fips":"29033","state":"MO","stfips":"29","display":"0"}},{"type":"Feature","id":241,"geometry":{"type":"Point","coordinates":[-94.204109191894531,39.438335418701172]},"properties":{"FID":241,"citiesx020":19345,"feature":"Populated Place","name":"Lawson","pop_range":"0 - 9,999","pop_2000":2336,"fips55":"40988","county":"Ray County","fips":"29177","state":"MO","stfips":"29","display":"0"}},{"type":"Feature","id":242,"geometry":{"type":"Point","coordinates":[-94.982742309570313,39.475276947021484]},"properties":{"FID":242,"citiesx020":19350,"feature":"Populated Place","name":"Iatan","pop_range":"0 - 9,999","pop_2000":54,"fips55":"34210","county":"Platte County","fips":"29165","state":"MO","stfips":"29","display":"0"}},{"type":"Feature","id":243,"geometry":{"type":"Point","coordinates":[-94.638565063476563,39.455558776855469]},"properties":{"FID":243,"citiesx020":19360,"feature":"Populated Place","name":"Ridgely","pop_range":"0 - 9,999","pop_2000":64,"fips55":"61886","county":"Platte County","fips":"29165","state":"MO","stfips":"29","display":"0"}},{"type":"Feature","id":244,"geometry":{"type":"Point","coordinates":[-94.741622924804688,39.452777862548828]},"properties":{"FID":244,"citiesx020":19374,"feature":"Populated Place","name":"Camden Point","pop_range":"0 - 9,999","pop_2000":484,"fips55":"10792","county":"Platte County","fips":"29165","state":"MO","stfips":"29","display":"0"}},{"type":"Feature","id":245,"geometry":{"type":"Point","coordinates":[-91.645439147949219,39.242538452148438]},"properties":{"FID":245,"citiesx020":19395,"feature":"Populated Place","name":"Laddonia","pop_range":"0 - 9,999","pop_2000":620,"fips55":"39602","county":"Audrain County","fips":"29007","state":"MO","stfips":"29","display":"0"}},{"type":"Feature","id":246,"geometry":{"type":"Point","coordinates":[-92.512680053710938,39.304759979248047]},"properties":{"FID":246,"citiesx020":19401,"feature":"Populated Place","name":"Higbee","pop_range":"0 - 9,999","pop_2000":623,"fips55":"31924","county":"Randolph County","fips":"29175","state":"MO","stfips":"29","display":"0"}},{"type":"Feature","id":247,"geometry":{"type":"Point","coordinates":[-92.689773559570313,39.315380096435547]},"properties":{"FID":247,"citiesx020":19406,"feature":"Populated Place","name":"Roanoke","pop_range":"Undetermined","pop_2000":-99999,"fips55":"62282","county":"Howard County","fips":"29089","state":"MO","stfips":"29","display":"0"}},{"type":"Feature","id":248,"geometry":{"type":"Point","coordinates":[-90.780960083007813,39.166721343994141]},"properties":{"FID":248,"citiesx020":19409,"feature":"Populated Place","name":"Elsberry","pop_range":"0 - 9,999","pop_2000":2047,"fips55":"22114","county":"Lincoln County","fips":"29113","state":"MO","stfips":"29","display":"0"}},{"type":"Feature","id":249,"geometry":{"type":"Point","coordinates":[-91.016807556152344,39.185325622558594]},"properties":{"FID":249,"citiesx020":19415,"feature":"Populated Place","name":"Whiteside","pop_range":"0 - 9,999","pop_2000":67,"fips55":"79558","county":"Lincoln County","fips":"29113","state":"MO","stfips":"29","display":"0"}},{"type":"Feature","id":250,"geometry":{"type":"Point","coordinates":[-93.495773315429688,39.358348846435547]},"properties":{"FID":250,"citiesx020":19428,"feature":"County Seat","name":"Carrollton","pop_range":"0 - 9,999","pop_2000":4122,"fips55":"11566","county":"Carroll County","fips":"29033","state":"MO","stfips":"29","display":"0"}},{"type":"Feature","id":251,"geometry":{"type":"Point","coordinates":[-92.342674255371094,39.281147003173828]},"properties":{"FID":251,"citiesx020":19431,"feature":"Populated Place","name":"Clark","pop_range":"0 - 9,999","pop_2000":275,"fips55":"14068","county":"Randolph County","fips":"29175","state":"MO","stfips":"29","display":"0"}},{"type":"Feature","id":252,"geometry":{"type":"Point","coordinates":[-94.207717895507813,39.390285491943359]},"properties":{"FID":252,"citiesx020":19446,"feature":"Populated Place","name":"Excelsior Estates","pop_range":"0 - 9,999","pop_2000":263,"fips55":"23077","county":"Ray County","fips":"29177","state":"MO","stfips":"29","display":"0"}},{"type":"Feature","id":253,"geometry":{"type":"Point","coordinates":[-94.146331787109375,39.380569458007813]},"properties":{"FID":253,"citiesx020":19456,"feature":"Populated Place","name":"Vibbard","pop_range":"Undetermined","pop_2000":-99999,"fips55":"75994","county":"Ray County","fips":"29177","state":"MO","stfips":"29","display":"0"}},{"type":"Feature","id":254,"geometry":{"type":"Point","coordinates":[-93.227989196777344,39.3214111328125]},"properties":{"FID":254,"citiesx020":19467,"feature":"Populated Place","name":"Miami","pop_range":"0 - 9,999","pop_2000":160,"fips55":"47684","county":"Saline County","fips":"29195","state":"MO","stfips":"29","display":"0"}},{"type":"Feature","id":255,"geometry":{"type":"Point","coordinates":[-94.901634216308594,39.411106109619141]},"properties":{"FID":255,"citiesx020":19474,"feature":"Populated Place","name":"Weston","pop_range":"0 - 9,999","pop_2000":1631,"fips55":"78856","county":"Platte County","fips":"29165","state":"MO","stfips":"29","display":"0"}},{"type":"Feature","id":256,"geometry":{"type":"Point","coordinates":[-91.721549987792969,39.210037231445313]},"properties":{"FID":256,"citiesx020":19477,"feature":"Populated Place","name":"Rush Hill","pop_range":"0 - 9,999","pop_2000":130,"fips55":"63560","county":"Audrain County","fips":"29007","state":"MO","stfips":"29","display":"0"}},{"type":"Feature","id":257,"geometry":{"type":"Point","coordinates":[-94.581062316894531,39.386940002441406]},"properties":{"FID":257,"citiesx020":19486,"feature":"Populated Place","name":"Smithville","pop_range":"0 - 9,999","pop_2000":5514,"fips55":"68420","county":"Clay County","fips":"29047","state":"MO","stfips":"29","display":"0"}},{"type":"Feature","id":258,"geometry":{"type":"Point","coordinates":[-93.378097534179688,39.315536499023438]},"properties":{"FID":258,"citiesx020":19491,"feature":"Populated Place","name":"Wakenda","pop_range":"Undetermined","pop_2000":-99999,"fips55":"76534","county":"Carroll County","fips":"29033","state":"MO","stfips":"29","display":"1"}},{"type":"Feature","id":259,"geometry":{"type":"Point","coordinates":[-94.200782775878906,39.362785339355469]},"properties":{"FID":259,"citiesx020":19492,"feature":"Populated Place","name":"Homestead","pop_range":"0 - 9,999","pop_2000":181,"fips55":"32806","county":"Ray County","fips":"29177","state":"MO","stfips":"29","display":"0"}},{"type":"Feature","id":260,"geometry":{"type":"Point","coordinates":[-92.7012939453125,39.269748687744141]},"properties":{"FID":260,"citiesx020":19494,"feature":"Populated Place","name":"Armstrong","pop_range":"0 - 9,999","pop_2000":287,"fips55":"01954","county":"Howard County","fips":"29089","state":"MO","stfips":"29","display":"0"}},{"type":"Feature","id":261,"geometry":{"type":"Point","coordinates":[-94.18994140625,39.359443664550781]},"properties":{"FID":261,"citiesx020":19497,"feature":"Populated Place","name":"Crystal Lakes","pop_range":"0 - 9,999","pop_2000":383,"fips55":"17660","county":"Ray County","fips":"29177","state":"MO","stfips":"29","display":"0"}},{"type":"Feature","id":262,"geometry":{"type":"Point","coordinates":[-94.362167358398438,39.367782592773438]},"properties":{"FID":262,"citiesx020":19499,"feature":"Populated Place","name":"Kearney","pop_range":"0 - 9,999","pop_2000":5472,"fips55":"38072","county":"Clay County","fips":"29047","state":"MO","stfips":"29","display":"0"}},{"type":"Feature","id":263,"geometry":{"type":"Point","coordinates":[-94.063003540039063,39.348339080810547]},"properties":{"FID":263,"citiesx020":19508,"feature":"Populated Place","name":"Rayville","pop_range":"0 - 9,999","pop_2000":204,"fips55":"60824","county":"Ray County","fips":"29177","state":"MO","stfips":"29","display":"0"}},{"type":"Feature","id":264,"geometry":{"type":"Point","coordinates":[-92.280738830566406,39.234207153320313]},"properties":{"FID":264,"citiesx020":19509,"feature":"Populated Place","name":"Sturgeon","pop_range":"0 - 9,999","pop_2000":944,"fips55":"71224","county":"Boone County","fips":"29019","state":"MO","stfips":"29","display":"0"}},{"type":"Feature","id":265,"geometry":{"type":"Point","coordinates":[-94.793014526367188,39.376941680908203]},"properties":{"FID":265,"citiesx020":19521,"feature":"Populated Place","name":"Tracy","pop_range":"0 - 9,999","pop_2000":213,"fips55":"73690","county":"Platte County","fips":"29165","state":"MO","stfips":"29","display":"0"}},{"type":"Feature","id":266,"geometry":{"type":"Point","coordinates":[-94.667526245117188,39.368911743164063]},"properties":{"FID":266,"citiesx020":19526,"feature":"Populated Place","name":"Hoover","pop_range":"Undetermined","pop_2000":-99999,"fips55":"32914","county":"Platte County","fips":"29165","state":"MO","stfips":"29","display":"0"}},{"type":"Feature","id":267,"geometry":{"type":"Point","coordinates":[-92.137954711914063,39.210323333740234]},"properties":{"FID":267,"citiesx020":19533,"feature":"Populated Place","name":"Centralia","pop_range":"0 - 9,999","pop_2000":3774,"fips55":"12898","county":"Boone County","fips":"29019","state":"MO","stfips":"29","display":"0"}},{"type":"Feature","id":268,"geometry":{"type":"Point","coordinates":[-94.162467956542969,39.340011596679688]},"properties":{"FID":268,"citiesx020":19534,"feature":"Populated Place","name":"Woods Heights","pop_range":"Undetermined","pop_2000":-99999,"fips55":"80908","county":"Ray County","fips":"29177","state":"MO","stfips":"29","display":"1"}},{"type":"Feature","id":269,"geometry":{"type":"Point","coordinates":[-91.054306030273438,39.123374938964844]},"properties":{"FID":269,"citiesx020":19538,"feature":"Populated Place","name":"Silex","pop_range":"0 - 9,999","pop_2000":206,"fips55":"67808","county":"Lincoln County","fips":"29113","state":"MO","stfips":"29","display":"0"}},{"type":"Feature","id":270,"geometry":{"type":"Point","coordinates":[-94.782455444335938,39.370281219482422]},"properties":{"FID":270,"citiesx020":19539,"feature":"County Seat","name":"Platte City","pop_range":"0 - 9,999","pop_2000":3866,"fips55":"58178","county":"Platte County","fips":"29165","state":"MO","stfips":"29","display":"0"}},{"type":"Feature","id":271,"geometry":{"type":"Point","coordinates":[-94.226051330566406,39.33917236328125]},"properties":{"FID":271,"citiesx020":19546,"feature":"Populated Place","name":"Excelsior Springs","pop_range":"10,000 - 49,999","pop_2000":10847,"fips55":"23086","county":"Clay County","fips":"29047","state":"MO","stfips":"29","display":"0"}},{"type":"Feature","id":272,"geometry":{"type":"Point","coordinates":[-94.867500305175781,39.367996215820313]},"properties":{"FID":272,"citiesx020":19552,"feature":"Populated Place","name":"Beverly","pop_range":"Undetermined","pop_2000":-99999,"fips55":"05230","county":"Platte County","fips":"29165","state":"MO","stfips":"29","display":"0"}},{"type":"Feature","id":273,"geometry":{"type":"Point","coordinates":[-93.677436828613281,39.302516937255859]},"properties":{"FID":273,"citiesx020":19554,"feature":"Populated Place","name":"Norborne","pop_range":"0 - 9,999","pop_2000":805,"fips55":"52760","county":"Carroll County","fips":"29033","state":"MO","stfips":"29","display":"0"}},{"type":"Feature","id":274,"geometry":{"type":"Point","coordinates":[-91.882949829101563,39.169761657714844]},"properties":{"FID":274,"citiesx020":19576,"feature":"County Seat","name":"Mexico","pop_range":"10,000 - 49,999","pop_2000":11320,"fips55":"47648","county":"Audrain County","fips":"29007","state":"MO","stfips":"29","display":"0"}},{"type":"Feature","id":275,"geometry":{"type":"Point","coordinates":[-91.843498229980469,39.163101196289063]},"properties":{"FID":275,"citiesx020":19585,"feature":"Populated Place","name":"Vandiver","pop_range":"0 - 9,999","pop_2000":83,"fips55":"75706","county":"Audrain County","fips":"29007","state":"MO","stfips":"29","display":"0"}},{"type":"Feature","id":276,"geometry":{"type":"Point","coordinates":[-91.414039611816406,39.126983642578125]},"properties":{"FID":276,"citiesx020":19588,"feature":"Populated Place","name":"Middletown","pop_range":"0 - 9,999","pop_2000":199,"fips55":"47900","county":"Montgomery County","fips":"29139","state":"MO","stfips":"29","display":"0"}},{"type":"Feature","id":277,"geometry":{"type":"Point","coordinates":[-94.293830871582031,39.315563201904297]},"properties":{"FID":277,"citiesx020":19598,"feature":"Populated Place","name":"Mosby","pop_range":"0 - 9,999","pop_2000":242,"fips55":"50168","county":"Clay County","fips":"29047","state":"MO","stfips":"29","display":"0"}},{"type":"Feature","id":278,"geometry":{"type":"Point","coordinates":[-92.846572875976563,39.227249145507813]},"properties":{"FID":278,"citiesx020":19601,"feature":"Populated Place","name":"Glasgow","pop_range":"0 - 9,999","pop_2000":1263,"fips55":"27208","county":"Howard County","fips":"29089","state":"MO","stfips":"29","display":"0"}},{"type":"Feature","id":279,"geometry":{"type":"Point","coordinates":[-94.272438049316406,39.312503814697266]},"properties":{"FID":279,"citiesx020":19602,"feature":"Populated Place","name":"Prathersville","pop_range":"0 - 9,999","pop_2000":111,"fips55":"59816","county":"Clay County","fips":"29047","state":"MO","stfips":"29","display":"0"}},{"type":"Feature","id":280,"geometry":{"type":"Point","coordinates":[-93.004631042480469,39.233356475830078]},"properties":{"FID":280,"citiesx020":19606,"feature":"Populated Place","name":"Gilliam","pop_range":"0 - 9,999","pop_2000":229,"fips55":"27028","county":"Saline County","fips":"29195","state":"MO","stfips":"29","display":"0"}},{"type":"Feature","id":281,"geometry":{"type":"Point","coordinates":[-91.765167236328125,39.134479522705078]},"properties":{"FID":281,"citiesx020":19621,"feature":"Populated Place","name":"Benton City","pop_range":"0 - 9,999","pop_2000":122,"fips55":"04834","county":"Audrain County","fips":"29007","state":"MO","stfips":"29","display":"0"}},{"type":"Feature","id":282,"geometry":{"type":"Point","coordinates":[-93.834388732910156,39.270843505859375]},"properties":{"FID":282,"citiesx020":19628,"feature":"Populated Place","name":"Hardin","pop_range":"0 - 9,999","pop_2000":614,"fips55":"30322","county":"Ray County","fips":"29177","state":"MO","stfips":"29","display":"0"}},{"type":"Feature","id":283,"geometry":{"type":"Point","coordinates":[-93.976890563964844,39.278621673583984]},"properties":{"FID":283,"citiesx020":19629,"feature":"County Seat","name":"Richmond","pop_range":"0 - 9,999","pop_2000":6116,"fips55":"61670","county":"Ray County","fips":"29177","state":"MO","stfips":"29","display":"0"}},{"type":"Feature","id":284,"geometry":{"type":"Point","coordinates":[-90.742340087890625,39.046440124511719]},"properties":{"FID":284,"citiesx020":19630,"feature":"Populated Place","name":"Foley","pop_range":"0 - 9,999","pop_2000":178,"fips55":"24886","county":"Lincoln County","fips":"29113","state":"MO","stfips":"29","display":"0"}},{"type":"Feature","id":285,"geometry":{"type":"Point","coordinates":[-94.664955139160156,39.311111450195313]},"properties":{"FID":285,"citiesx020":19635,"feature":"Populated Place","name":"Ferrelview","pop_range":"0 - 9,999","pop_2000":593,"fips55":"24058","county":"Platte County","fips":"29165","state":"MO","stfips":"29","display":"0"}},{"type":"Feature","id":286,"geometry":{"type":"Point","coordinates":[-93.069091796875,39.218086242675781]},"properties":{"FID":286,"citiesx020":19639,"feature":"Populated Place","name":"Slater","pop_range":"0 - 9,999","pop_2000":2083,"fips55":"68204","county":"Saline County","fips":"29195","state":"MO","stfips":"29","display":"0"}},{"type":"Feature","id":287,"geometry":{"type":"Point","coordinates":[-94.888542175292969,39.319534301757813]},"properties":{"FID":287,"citiesx020":19645,"feature":"Populated Place","name":"Stillings","pop_range":"Undetermined","pop_2000":-99999,"fips55":"70774","county":"Platte County","fips":"29165","state":"MO","stfips":"29","display":"0"}},{"type":"Feature","id":288,"geometry":{"type":"Point","coordinates":[-94.852653503417969,39.314319610595703]},"properties":{"FID":288,"citiesx020":19654,"feature":"Populated Place","name":"East Leavenworth","pop_range":"Undetermined","pop_2000":-99999,"fips55":"20962","county":"Platte County","fips":"29165","state":"MO","stfips":"29","display":"0"}},{"type":"Feature","id":289,"geometry":{"type":"Point","coordinates":[-91.647659301757813,39.102256774902344]},"properties":{"FID":289,"citiesx020":19670,"feature":"Populated Place","name":"Martinsburg","pop_range":"0 - 9,999","pop_2000":326,"fips55":"46460","county":"Audrain County","fips":"29007","state":"MO","stfips":"29","display":"0"}},{"type":"Feature","id":290,"geometry":{"type":"Point","coordinates":[-93.442710876464844,39.206409454345703]},"properties":{"FID":290,"citiesx020":19719,"feature":"Populated Place","name":"Grand Pass","pop_range":"0 - 9,999","pop_2000":53,"fips55":"28198","county":"Saline County","fips":"29195","state":"MO","stfips":"29","display":"0"}},{"type":"Feature","id":291,"geometry":{"type":"Point","coordinates":[-92.462684631347656,39.141708374023438]},"properties":{"FID":291,"citiesx020":19720,"feature":"Populated Place","name":"Harrisburg","pop_range":"0 - 9,999","pop_2000":184,"fips55":"30484","county":"Boone County","fips":"29019","state":"MO","stfips":"29","display":"0"}},{"type":"Feature","id":292,"geometry":{"type":"Point","coordinates":[-94.831344604492188,39.282218933105469]},"properties":{"FID":292,"citiesx020":19721,"feature":"Populated Place","name":"Farley","pop_range":"0 - 9,999","pop_2000":226,"fips55":"23698","county":"Platte County","fips":"29165","state":"MO","stfips":"29","display":"0"}},{"type":"Feature","id":293,"geometry":{"type":"Point","coordinates":[-93.935501098632813,39.234180450439453]},"properties":{"FID":293,"citiesx020":19723,"feature":"Populated Place","name":"Henrietta","pop_range":"0 - 9,999","pop_2000":457,"fips55":"31654","county":"Ray County","fips":"29177","state":"MO","stfips":"29","display":"0"}},{"type":"Feature","id":294,"geometry":{"type":"Point","coordinates":[-93.517715454101563,39.209457397460938]},"properties":{"FID":294,"citiesx020":19726,"feature":"Populated Place","name":"Waverly","pop_range":"0 - 9,999","pop_2000":806,"fips55":"77866","county":"Lafayette County","fips":"29107","state":"MO","stfips":"29","display":"0"}},{"type":"Feature","id":295,"geometry":{"type":"Point","coordinates":[-91.570159912109375,39.071979522705078]},"properties":{"FID":295,"citiesx020":19728,"feature":"Populated Place","name":"Wellsville","pop_range":"0 - 9,999","pop_2000":1423,"fips55":"78406","county":"Montgomery County","fips":"29139","state":"MO","stfips":"29","display":"0"}},